unitid,name,alias,address,city,state,zip,county,region,phone,website,admissions_url,applications_url,financial_aid_url,net_price_calc_url,sector,control,highest_degree_offered,size_category,hbcu,tribal,locale,longitude,latitude,ipeds_opeid,ein,president_name,president_title,is_slate_org_participant
102580,Alaska Bible College, ,248 E Elmwood Ave,Palmer,AK,99645,Matanuska-Susitna Borough,Far West,9077453201,https://www.akbible.edu/,https://www.akbible.edu/admissions/,https://www.akbible.edu/admissions/applynow/,https://www.akbible.edu/admissions/tuition-aid/financial-aid/,https://www.akbible.edu/admissions/tuition-aid/net-price-calculator/,"Private not-for-profit, 4-year or above",Private nonprofit,Bachelor degree,"Under 1,000",No,No,Suburb: Small,-149.111972,61.598553,00884300  ,943255546,David Ley,President,False
102669,Alaska Pacific University, ,4101 University Drive,Anchorage,AK,99508,Anchorage Municipality,Far West,9075611266,www.alaskapacific.edu/,www.alaskapacific.edu/admissions/,https://applicant.alaskapacific.edu/undergraduate/login.asp,www.alaskapacific.edu/apply/financial-aid/,https://npc.collegeboard.org/student/app/alaskapacific,"Private not-for-profit, 4-year or above",Private nonprofit,Doctoral degree,"Under 1,000",No,No,City: Large,-149.804168,61.190968,00106100  ,920023588,Dr. Janelle Vanasse,President,False
102845,Charter College, ,"2221 East Norhtern Lights Boulevard, Suite 120",Anchorage,AK,99508-4103,Anchorage Municipality,Far West,9072271000,https://chartercollege.edu/,https://chartercollege.edu/admissions/,https://chartercollege.edu/,https://chartercollege.edu/financial-aid/,https://chartercollege.edu/financial-aid/,"Private for-profit, 4-year or above",Private for-profit,Bachelor degree,"1,000 - 4,999",No,No,City: Large,-149.839274,61.19633,02576900  ,550880289,Dr. Heather Allen,Director of Regulatory Affairs,False
434584,Ilisagvik College, ,100 Stevenson Street,Barrow,AK,99723,North Slope Borough,Far West,9078523333,www.ilisagvik.edu/,www.ilisagvik.edu/apply/,https://empowerweb.ilisagvik.edu/fusebox.cfm?fuseaction=NewApplication,www.ilisagvik.edu/become-a-student/financial-aid/,www.ilisagvik.edu/fa-netcalc/npcalc.htm,"Public, 4-year or above",Public,Bachelor degree,"Under 1,000",No,Yes,Rural: Remote,-156.679486,71.324702,03461300  ,920158414,Justina Wilhelm,President,False
102553,University of Alaska Anchorage,UAA,3211 Providence Drive,Anchorage,AK,99508,Anchorage Municipality,Far West,9077861800,www.uaa.alaska.edu/,www.uaa.alaska.edu/admissions/,uaonline.alaska.edu/,www.uaa.alaska.edu/financialaid/,www.uaa.alaska.edu/financialaid/customcf/npcalc.htm,"Public, 4-year or above",Public,Doctoral degree,"10,000 - 19,999",No,No,City: Large,-149.82619,61.190163,01146200  ,926000147,Sean Parnell,Chancellor,False
102614,University of Alaska Fairbanks,UAF,1731 South Chandalar Drive,Fairbanks,AK,99775,Fairbanks North Star Borough,Far West,9074747034,www.uaf.edu/,www.uaf.edu/admissions/,uaf.edu/admissions/apply/#now,www.uaf.edu/finaid/,uaf.edu/finaid/costs/net-price-calculator.php,"Public, 4-year or above",Public,Doctoral degree,"5,000 - 9,999",No,No,City: Small,-147.823146,64.85756,00106300  ,926000147,Daniel M. White,Chancellor,False
102632,University of Alaska Southeast, ,11066 Auke Lake Way,Juneau,AK,99801-8697,Juneau City and Borough,Far West,8774654827,www.uas.alaska.edu/,www.uas.alaska.edu/apply/,uas.alaska.edu/apply/steps/index.html,www.uas.alaska.edu/financial_aid/,uas.alaska.edu/apply/cost-calculator.html,"Public, 4-year or above",Public,Post-masters certificate,"1,000 - 4,999",No,No,Rural: Fringe,-134.638255,58.384846,00106500  ,926000147,Aparna Palmer,Chancellor,False
103529,University of Alaska System of Higher Education,University of Alaska System Office,"2025 Yukon Drive, Suite 202 Butrovich Building",Fairbanks,AK,99775-5000,Fairbanks North Star Borough,Far West,9074508000,www.alaska.edu/, , , , ,Administrative Unit,Public,Doctoral degree,Not applicable,No,No,City: Small,-147.848969,64.857516,00800500  ,926000147,Pat Pitney,President,False
100654,Alabama A & M University,AAMU,4900 Meridian Street,Normal,AL,35762,Madison County,Southeast,2563725000,www.aamu.edu/,https://www.aamu.edu/admissions-aid/index.html,https://www.aamu.edu/admissions-aid/undergraduate-admissions/apply-today.html,https://www.aamu.edu/admissions-aid/financial-aid/,www.aamu.edu/admissions-aid/tuition-fees/net-price-calculator.html,"Public, 4-year or above",Public,Doctoral degree,"5,000 - 9,999",Yes,No,City: Midsize,-86.568502,34.783368,00100200  ,636001097,Dr. Daniel K. Wims,President,False
483975,Alabama College of Osteopathic Medicine,ACOM,445 Health Sciences Boulevard,Dothan,AL,36303-2251,Houston County,Southeast,3346992266,https://www.acom.edu/,https://www.acom.edu/admissions, ,https://www.acom.edu/financial-aid,https://www.acom.edu/cost-of-attendance,"Private not-for-profit, 4-year or above",Private nonprofit,Doctoral degree,"Under 1,000",No,No,City: Small,-85.340805,31.206294,04226700  ,273339185,Richard Sutton,President,False
100724,Alabama State University, ,915 S Jackson Street,Montgomery,AL,36104-0271,Montgomery County,Southeast,3342294100,www.alasu.edu/,www.alasu.edu/admissions/index.aspx,www.alasu.edu/admissions/undergrad-admissions/index.aspx,www.alasu.edu/_qa/financial-aid.php,tcc.ruffalonl.com/Alabama State University/Freshman-Students,"Public, 4-year or above",Public,Doctoral degree,"1,000 - 4,999",Yes,No,City: Midsize,-86.295677,32.364317,00100500  ,636001101,Quinton T. Ross,President,False
100690,Amridge University,Southern Christian University  Regions University,1200 Taylor Rd,Montgomery,AL,36117-3553,Montgomery County,Southeast,33438738777550,https://www.amridgeuniversity.edu/,https://www.amridgeuniversity.edu/admissions/,https://www.amridgeuniversity.edu/myamridge/,https://www.amridgeuniversity.edu/financialaid/,https://www2.amridgeuniversity.edu:9091/,"Private not-for-profit, 4-year or above",Private nonprofit,Doctoral degree,"Under 1,000",No,No,City: Midsize,-86.17401,32.362609,02503400  ,237034324,Michael C.Turner,President,False
100812,Athens State University, ,300 N Beaty St,Athens,AL,35611,Limestone County,Southeast,2562338100,https://www.athens.edu/,https://www.athens.edu/admissions/,https://beartracks.athens.edu/,https://www.athens.edu/admissions/financial-aid, ,"Public, 4-year or above",Public,Master degree,"1,000 - 4,999",No,No,Town: Fringe,-86.964698,34.806793,00100800  ,630701340,Dr. Catherine Wehlburg,President,False
100858,Auburn University, , ,Auburn,AL,36849,Lee County,Southeast,3348444000,www.auburn.edu/,www.auburn.edu/admissions/,www.auburn.edu/admissions/,https://www.auburn.edu/enrollment/financial-aid/index.php,https://www.auburn.edu/admissions/costcalc/index.php,"Public, 4-year or above",Public,Doctoral degree,"20,000 and above",No,No,City: Small,-85.488258,32.599378,00100900  ,636000724,Chris Roberts,President,True
100830,Auburn University at Montgomery,AUM||Auburn University at Montgomery|Auburn Montgomery,7440 East Drive,Montgomery,AL,36117-3596,Montgomery County,Southeast,3342443000,www.aum.edu/,www.aum.edu/admissions,www.aum.edu/apply#apply-now-back-btn-row,www.aum.edu/admissions/scholarships-and-financial-aid/financial-aid,www.aum.edu/net-price-calculator,"Public, 4-year or above",Public,Doctoral degree,"5,000 - 9,999",No,No,City: Midsize,-86.177544,32.36736,00831000  ,636000724,Carl A. Stockton,Chancellor,False
450933,Columbia Southern University, ,21982 University Lane,Orange Beach,AL,36561-9000,Baldwin County,Southeast,25198137711278,www.columbiasouthern.edu/,www.columbiasouthern.edu/admissions,www.columbiasouthern.edu/Apply-Now,www.columbiasouthern.edu/tuition-financing/federal-student-aid,www.columbiasouthern.edu/tuition-financing,"Private for-profit, 4-year or above",Private for-profit,Doctoral degree,"10,000 - 19,999",No,No,Town: Fringe,-87.653162,30.329288,04121500  ,300711910,Ken Styron,President,False
101189,Faulkner University,Faulkner,5345 Atlanta Hwy,Montgomery,AL,36109-3390,Montgomery County,Southeast,3342725820,www.faulkner.edu/,www.faulkner.edu/undergrad/admissions/,applynow.myfaulkner.org/inquiryform,www.faulkner.edu/undergrad/tuition-financial-aid/,www.faulkner.edu/net-price-calculator/,"Private not-for-profit, 4-year or above",Private nonprofit,Doctoral degree,"1,000 - 4,999",No,No,City: Midsize,-86.21641,32.384181,00100300  ,630329409,Mitch Henry,President,False
101453,Heritage Christian University, ,3625 Helton Dr,Florence,AL,35630-9977,Lauderdale County,Southeast,2567666610,www.hcu.edu/,www.hcu.edu/admissions/,www.hcu.edu/admissions/apply-now/,www.hcu.edu/admission-aid/financial-aid/,www.hcu.edu/netpricecalculator/,"Private not-for-profit, 4-year or above",Private nonprofit,Master degree,"Under 1,000",No,No,City: Small,-87.663051,34.856153,02199700  ,237013287,W. Kirk Brothers,President,False
101365,Herzing University-Birmingham, ,280 West Valley Ave,Birmingham,AL,35209,Jefferson County,Southeast,2059162800,https://www.herzing.edu/,https://www.herzing.edu/,https://www.herzing.edu/,https://www.herzing.edu/,https://www.herzing.edu/tuition-financial-aid/net-price-calculator,"Private not-for-profit, 4-year or above",Private nonprofit,Post-masters certificate,"Under 1,000",No,No,Suburb: Large,-86.832465,33.468466,00962107  ,271503981,Sarah Higgins,Regional Vice President,False
101435,Huntingdon College, ,1500 East Fairview Avenue,Montgomery,AL,36106-2148,Montgomery County,Southeast,3348334497,https://www.huntingdon.edu/,https://www.huntingdon.edu/admission-aid/,https://www.huntingdon.edu/admission-aid/traditional-admission/,https://www.huntingdon.edu/admission-aid/student-financial-services/,https://www.huntingdon.edu/admission-aid/student-financial-services/net-price-calculator/,"Private not-for-profit, 4-year or above",Private nonprofit,Master degree,"Under 1,000",No,No,City: Midsize,-86.284366,32.351034,00101900  ,630288841,Anthony J. Leigh,President,False
449348,Huntsville Bible College, ,906 Oakwood Ave,Huntsville,AL,35811,Madison County,Southeast,2564697536,www.huntsvillebiblecollege.org/,www.huntsvillebiblecollege.org/admissions/,www.huntsvillebiblecollege.org/admissions/,www.huntsvillebiblecollege.org/admissions/financial-aid/,huntsvillebiblecollege.org/admissions/net-calculator,"Private not-for-profit, 4-year or above",Private nonprofit,Doctoral degree,"Under 1,000",No,No,City: Midsize,-86.594888,34.750363,03894300  ,631191637,Lyle Lee,President,False
101480,Jacksonville State University, ,700 Pelham Road North,Jacksonville,AL,36265,Calhoun County,Southeast,2567825781,https://www.jsu.edu/,https://www.jsu.edu/admissions/,https://www.jsu.edu/apply_now.html,https://www.jsu.edu/finaid/,https://www.jsu.edu/finaid/,"Public, 4-year or above",Public,Doctoral degree,"5,000 - 9,999",No,No,Suburb: Small,-85.765321,33.822938,00102000  ,636001099,Don Killingsworth,President,False
101675,Miles College, ,5500 Myron Massey Blvd,Fairfield,AL,35064-2621,Jefferson County,Southeast,20592910001645,https://www.miles.edu/,https://www.miles.edu/we-are-miles/admissions-and-enrollment,https://www.miles.edu/admissions-aid/how-apply,https://www.miles.edu/office-financial-aid,https://miles.clearcostcalculator.com/student/default/netpricecalculator/survey,"Private not-for-profit, 4-year or above",Private nonprofit,Bachelor degree,"1,000 - 4,999",Yes,No,Suburb: Large,-86.908751,33.482442,00102800  ,630400608,Bobbie Knight,President,False
101912,Oakwood University,OU,7000 Adventist Blvd NW,Huntsville,AL,35896,Madison County,Southeast,2567267000,https://www2.oakwood.edu/,https://my.oakwood.edu/ICS/Admissions/,https://my.oakwood.edu/ICS/Admissions/,www2.oakwood.edu/financial-aid/,https://oakwood.studentaidcalculator.com/,"Private not-for-profit, 4-year or above",Private nonprofit,Master degree,"1,000 - 4,999",Yes,No,City: Midsize,-86.652705,34.756344,00103300  ,630366652,Leslie Pollard,President,True
102049,Samford University, ,800 Lakeshore Drive,Birmingham,AL,35229-2240,Jefferson County,Southeast,2057262011,www.samford.edu/,www.samford.edu/admission,www.samford.edu/admission/apply,www.samford.edu/departments/financial-services/,https://www.samford.edu/admission/net-price-calculator,"Private not-for-profit, 4-year or above",Private nonprofit,Doctoral degree,"5,000 - 9,999",No,No,Suburb: Large,-86.791799,33.464128,00103600  ,630312914,Dr. Beck Taylor,President,True
102058,Selma University, ,"1501 Boynton St, Dinkins Hall",Selma,AL,36701,Dallas County,Southeast,3345261718104,https://selmau.edu/, , , ,https://selmau.edu/financialaid,"Private not-for-profit, 4-year or above",Private nonprofit,Master degree,"Under 1,000",Yes,No,Town: Distant,-87.032392,32.420387,04067300  ,630367461,Stanford Angion,President,False
101116,South University-Montgomery, ,5355 Vaughn Rd,Montgomery,AL,36116,Montgomery County,Southeast,3343958800,www.southuniversity.edu/,www.southuniversity.edu/admissions,www.southuniversity.edu/admissions/admission-info/applying,www.southuniversity.edu/admissions/financial-aid,www.southuniversity.edu/montgomery/net-price-calculator,"Private for-profit, 4-year or above",Private for-profit,Doctoral degree,"Under 1,000",No,No,City: Midsize,-86.216488,32.342684,01303906  ,630314610,Kenneth Macon,Campus Director & Dean of Academic Affairs & Ops,False
102234,Spring Hill College,Springhill|Springhill College|SHC|the Hill,4000 Dauphin St,Mobile,AL,36608-1780,Mobile County,Southeast,2513804000,https://www.shc.edu/,https://www.shc.edu/admissions-aid/admissions/,https://www.shc.edu/admissions-aid/admissions/apply/,https://www.shc.edu/admissions-aid/tuition-financial-aid/,https://www.shc.edu/admissions-aid/tuition-financial-aid/net-price-calculator/,"Private not-for-profit, 4-year or above",Private nonprofit,Master degree,"Under 1,000",No,No,City: Midsize,-88.138199,30.694751,00104100  ,630302179,Mary van Brunt,President,False
102270,Stillman College, ,3601 Stillman Boulevard,Tuscaloosa,AL,35401,Tuscaloosa County,Southeast,2053494240,https://stillman.edu/,https://stillman.edu/admissions/,https://stillman.liaisoncas.com/applicant-ux/#/login,https://stillman.edu/admissions/financial-aid/,https://stillman.edu/financial-aid/financial-aid-net-price-calculator/,"Private not-for-profit, 4-year or above",Private nonprofit,Bachelor degree,"Under 1,000",Yes,No,City: Midsize,-87.585278,33.200006,00104400  ,630315935,Yolanda W. Page,President,False
450377,Strayer University-Alabama, ,"2 20th Street North, #150",Birmingham,AL,35203,Jefferson County,Southeast,8774557180,www.strayer.edu/campus-locations/alabama/birmingham,https://www.strayer.edu/admissions/how-to-apply,application.strayer.edu/,https://www.strayer.edu/tuition-and-financial-aid/financial-aid,https://strayer.aidcalc.cloud/netprice.htm,"Private for-profit, 4-year or above",Private for-profit,Master degree,"1,000 - 4,999",No,No,City: Midsize,-86.80574,33.513375,00145953  ,520500740,Antoinette Farmer-Thompson,President,False
102298,Talladega College, ,627 West Battle Street,Talladega,AL,35160,Talladega County,Southeast,2567616100,www.talladega.edu/,https://www.talladega.edu/apply-for-admissions/,www.talladega.edu/apply-for-admissions/,https://www.talladega.edu/financial-aid/,www.talladega.edu/netcalc/npcalc.htm,"Private not-for-profit, 4-year or above",Private nonprofit,Master degree,"Under 1,000",Yes,No,Town: Distant,-86.112704,33.433472,00104600  ,630288870,Dr. Walter Kimbrough,President,False
100751,The University of Alabama, ,739 University Blvd,Tuscaloosa,AL,35487-0100,Tuscaloosa County,Southeast,2053486010,www.ua.edu/,gobama.ua.edu/,apply.ua.edu/,financialaid.ua.edu/,ua.aidcalc.cloud/netprice.htm,"Public, 4-year or above",Public,Doctoral degree,"20,000 and above",No,No,City: Midsize,-87.545978,33.211875,00105100  ,636001138,Dr. Stuart R. Bell,President,True
102368,Troy University,TROY,University Avenue,Troy,AL,36082-0001,Pike County,Southeast,3346703100,www.troy.edu/,www.troy.edu/applications-admissions/index.html,www.troy.edu/applications-admissions/index.html,www.troy.edu/scholarships-costs-aid/financial-aid/index.html,www.troy.edu/net-price-calculator/index.html,"Public, 4-year or above",Public,Doctoral degree,"10,000 - 19,999",No,No,Town: Remote,-85.95802,31.799583,00104700  ,636001102,"Dr. Jack Hawkins, Jr.",Chancellor,False
102377,Tuskegee University, ,"Kresge Center, 3rd Floor",Tuskegee,AL,36088-1920,Macon County,Southeast,3347278011,https://www.tuskegee.edu/,https://www.tuskegee.edu/admissions,https://www.tuskegee.edu/admissions-aid/apply-now,https://www.tuskegee.edu/admissions-aid/financial-aid,https://tcc.ruffalonl.com/Tuskegee University/Freshman-Students,"Private not-for-profit, 4-year or above",Private nonprofit,Doctoral degree,"1,000 - 4,999",Yes,No,Town: Distant,-85.708492,32.4309,00105000  ,630288878,Dr. Mark A. Brown,President and CEO,False
102395,United States Sports University,"United States Sports Academy, The Academy, America's Sports University",One Academy Drive,Daphne,AL,36526-7055,Baldwin County,Southeast,2516263303,https://www.ussa.edu/,https://ussa.edu/admissions/,https://ussa.edu/admissions/apply/,https://ussa.edu/admissions/costs-aid/financial-aid/,https://ussa.edu/admissions/costs-aid/cost-estimator/,"Private not-for-profit, 4-year or above",Private nonprofit,Doctoral degree,"Under 1,000",No,No,City: Small,-87.91163,30.639329,02170600  ,630771624,Dr. Steve Condon,President/CEO,False
100733,University of Alabama System Office, ,500 University Blvd. East,Tuscaloosa,AL,35401,Tuscaloosa County,Southeast,2053485122,www.uasystem.edu/, , , , ,Administrative Unit,Public,Doctoral degree,Not applicable,No,No,City: Midsize,-87.529594,33.207015,00800400  ,636001138,Sid Trant,Interim Chancellor,False
100663,University of Alabama at Birmingham,UAB,Administration Bldg Suite 1070,Birmingham,AL,35294-0110,Jefferson County,Southeast,2059344011,https://www.uab.edu/,https://www.uab.edu/admissions/,https://www.uab.edu/admissions/apply,https://www.uab.edu/cost-aid/,https://tcc.ruffalonl.com/University of Alabama at Birmingham/Freshman-Students,"Public, 4-year or above",Public,Doctoral degree,"20,000 and above",No,No,City: Midsize,-86.799345,33.505697,00105200  ,636005396,Ray L. Watts,President,False
100706,University of Alabama in Huntsville,UAH  University of Alabama Huntsville,301 Sparkman Dr,Huntsville,AL,35899,Madison County,Southeast,2568246120,www.uah.edu/,https://www.uah.edu/admissions,www.uah.edu/admissions/undergraduate/apply-for-admission,finaid.uah.edu/,uah.clearcostcalculator.com/student/default/netpricecalculator/survey,"Public, 4-year or above",Public,Doctoral degree,"5,000 - 9,999",No,No,City: Midsize,-86.640449,34.724557,00105500  ,630520830,Chuck Karr,President,False
101693,University of Mobile,University of Mobile,5735 College Parkway,Mobile,AL,36613-2842,Mobile County,Southeast,2516755990,https://www.umobile.edu/,https://umobile.edu/undergraduate-admissions/,https://umobile.edu/apply/,https://umobile.edu/financial-aid/,https://umobile.edu/financial-aid/cost-calculator/,"Private not-for-profit, 4-year or above",Private nonprofit,Doctoral degree,"1,000 - 4,999",No,No,Rural: Fringe,-88.128934,30.793247,00102900  ,630417508,Dr. Charles Smith,President,False
101709,University of Montevallo, ,Station 6001,Montevallo,AL,35115-6000,Shelby County,Southeast,2056656155,www.montevallo.edu/,www.montevallo.edu/admissions/,https://www.montevallo.edu/admissions/,https://www.montevallo.edu/admissions-aid/,https://www.montevallo.edu/NetPriceCalculator/,"Public, 4-year or above",Public,Doctoral degree,"1,000 - 4,999",No,No,Town: Fringe,-86.865099,33.10625,00100400  ,636000720,John W. Stewart III,President,False
101879,University of North Alabama,UNA,One Harrison Plaza,Florence,AL,35632-0001,Lauderdale County,Southeast,2567654100,https://www.una.edu/,https://www.una.edu/admissions,https://www.applyweb.com/aw?una,https://www.una.edu/financial-aid/index.html,https://www.una.edu/financial-aid/calculator/,"Public, 4-year or above",Public,Doctoral degree,"10,000 - 19,999",No,No,City: Small,-87.680407,34.80731,00101600  ,636000893,Kenneth D. Kitts,President,False
102094,University of South Alabama, ,307 N University Blvd,Mobile,AL,36688-0002,Mobile County,Southeast,2514606101,www.southalabama.edu/,www.southalabama.edu/departments/admissions/,www.southalabama.edu/departments/admissions/applytousa.html,www.southalabama.edu/departments/finaid/,www.southalabama.edu/departments/finaid/netpricecalculator/,"Public, 4-year or above",Public,Doctoral degree,"10,000 - 19,999",No,No,City: Midsize,-88.178711,30.696033,00105700  ,630477348,Jo Bonner,President,True
101587,University of West Alabama,UWA,Station One,Livingston,AL,35470,Sumter County,Southeast,2056523400,www.uwa.edu/,www.uwa.edu/Admissions/,https://www.uwa.edu/apply,https://www.uwa.edu/admissions/undergraduate/financialaid,secure.uwa.edu/calculator/,"Public, 4-year or above",Public,Doctoral degree,"5,000 - 9,999",No,No,Rural: Remote,-88.186329,32.588132,00102400  ,636001100,Dr. Ken Tucker,President,False
106306,Arkansas Baptist College, ,1600 Dr. Martin Luther King Jr. Drive,Little Rock,AR,72202-6068,Pulaski County,Southeast,5014201200,https://www.arkansasbaptist.edu/,https://www.arkansasbaptist.edu/admissions/,https://www.arkansasbaptist.edu/admissions/,https://www.arkansasbaptist.edu/financial-aid/,https://www.arkansasbaptist.edu/net-price-calculator/,"Private not-for-profit, 4-year or above",Private nonprofit,Bachelor degree,"Under 1,000",Yes,No,City: Midsize,-92.290555,34.734751,00108700  ,710298658,Dr. Leslie Rodriguez-McClellon,President,False
488527,Arkansas Colleges of Health Education,"Arkansas College of Osteopathic Medicine, ARCOM",7000 Chad Colley Blvd.,Fort Smith,AR,72916-0366,Sebastian County,Southeast,4793082243,achehealth.edu/,https://achehealth.edu/consumer-information/,https://achehealth.edu/,achehealth.edu/financial-aid/,https://achehealth.edu/consumer-information/,"Private not-for-profit, 4-year or above",Private nonprofit,Doctoral degree,"Under 1,000",No,No,City: Small,-94.319084,35.317421,04256800  ,465138928,Kyle D. Parker,President and CEO,False
106458,Arkansas State University,"A-State, AState","2105 East, Aggie Road",Jonesboro,AR,72401,Craighead County,Southeast,8709722100,www.astate.edu/,www.astate.edu/admissions,https://www.astate.edu/info/apply/,www.astate.edu/finaid,www.astate.edu/a/finaid/tuition-fees/net-price-calculator/index.dot,"Public, 4-year or above",Public,Doctoral degree,"10,000 - 19,999",No,No,City: Small,-90.679988,35.842388,00109000  ,716000556,Todd Shields,Chancellor,True
448336,Arkansas State University System,ASU System,"501 Woodlane Drive, Suite 600",Little Rock,AR,72201,Pulaski County,Southeast,5016601000,www.asusystem.edu/, , , , ,Administrative Unit,Public,Doctoral degree,Not applicable,No,No,City: Midsize,-92.28758,34.74582,00109000  ,716000556,Dr. Robin Myers,President,False
106467,Arkansas Tech University,ATU|Tech|Arkansas Tech,305 West Q Street,Russellville,AR,72801,Pope County,Southeast,4799680237,https://www.atu.edu/,https://www.atu.edu/admissions/,https://www.atu.edu/admissions/,https://www.atu.edu/finaid/,https://www.atu.edu/finaid/npcalc.html,"Public, 4-year or above",Public,Doctoral degree,"5,000 - 9,999",No,No,Town: Remote,-93.137172,35.296091,00108900  ,716014834,Russell Jones,President,True
106713,Central Baptist College,CBC,1501 College Avenue,Conway,AR,72034,Faulkner County,Southeast,5013296872,www.cbc.edu/,https://www.cbc.edu/admissions,https://www.cbc.edu/apply,https://www.cbc.edu/cost,https://www.cbc.edu/estimateexpenses,"Private not-for-profit, 4-year or above",Private nonprofit,Bachelor degree,"Under 1,000",No,No,City: Small,-92.445021,35.083838,00109300  ,710349638,Terry Kimbrow,President,False
492069,Champion Christian College,CCC,600 Garland Avenue,Hot Springs,AR,71913,Garland County,Southeast,5016232272412,champion.edu/,champion.edu/admissions/,champion.edu/admissions/apply/,champion.edu/admissions/financial-information/,champion.edu/netpricecalculator,"Private not-for-profit, 4-year or above",Private nonprofit,Bachelor degree,"Under 1,000",No,No,City: Small,-93.065945,34.499589,04276100  ,473013519,Dr. Jeremy Horton,Executive Vice President,False
106810,Crowley's Ridge College, ,100 College Dr,Paragould,AR,72450,Greene County,Southeast,8702366901,www.crc.edu/, , , ,crc.edu/wp/financial-aid/,"Private not-for-profit, 4-year or above",Private nonprofit,Bachelor degree,"Under 1,000",No,No,Rural: Fringe,-90.584395,36.064845,00109500  ,710462177,Dr. Richard Johnson,President,False
446233,Ecclesia College, ,9653 Nations Dr,Springdale,AR,72762,Benton County,Southeast,4792487236,ecollege.edu/,ecollege.edu/admissions/,ecollege.edu/apply/,ecollege.edu/financial-aid/,ecollege.edu/financial-aid/cost-of-education/,"Private not-for-profit, 4-year or above",Private nonprofit,Master degree,"Under 1,000",No,No,Rural: Fringe,-94.236643,36.2141,03855300  ,710477536,Michael Novak,President,False
107044,Harding University, ,915 E. Market Ave.,Searcy,AR,72149-5615,White County,Southeast,5012794000,www.harding.edu/,www.harding.edu/admissions/,www.harding.edu/admissions/apply/index.html,www.harding.edu/about/offices-departments/finaid/index.html,www.harding.edu/about/offices-departments/finaid/index.html,"Private not-for-profit, 4-year or above",Private nonprofit,Doctoral degree,"1,000 - 4,999",No,No,Town: Distant,-91.726143,35.247386,00109700  ,710236896,Mike Williams,President,False
107071,Henderson State University, ,1100 Henderson Street,Arkadelphia,AR,71999-0001,Clark County,Southeast,8702305000,https://www.hsu.edu/,https://www.hsu.edu/pages/future-students/admissions/,https://admissions.hsu.edu/apply/,https://www.hsu.edu/pages/future-students/financial-aid/,https://www.hsu.edu/pages/future-students/financial-aid/net-price-calculator/,"Public, 4-year or above",Public,Post-masters certificate,"1,000 - 4,999",No,No,Town: Distant,-93.059703,34.128155,00109800  ,716000286,Conrid C Berry,Chancellor,False
107080,Hendrix College, ,1600 Washington Ave,Conway,AR,72032-3080,Faulkner County,Southeast,5013296811,https://www.hendrix.edu/,https://www.hendrix.edu/admission,https://www.hendrix.edu/apply,https://www.hendrix.edu/financialaid,https://app.meadowfi.com/hendrix,"Private not-for-profit, 4-year or above",Private nonprofit,Master degree,"1,000 - 4,999",No,No,City: Small,-92.443256,35.101565,00109900  ,710236897,Karen Petersen,President,True
497453,Jackson Theological Seminary, ,520 Locust Street,North Little Rock,AR,72114-0000,Pulaski County,Southeast,5014928395,https://jtseminary.edu/,https://jtseminary.edu/admission/,https://jtseminary.populiweb.com/router/admissions/onlineapplications/index?application_form=25118,https://jtseminary.edu/financial-aid/,https://jtseminary.edu/tuition-and-fees/,"Private not-for-profit, 4-year or above",Private nonprofit,Master degree,"Under 1,000",No,No,City: Small,-92.261249,34.758689,04296800  ,832693542,Clarence Guy,Interim President,False
107141,John Brown University, ,2000 W University St,Siloam Springs,AR,72761,Benton County,Southeast,4795249500,https://www.jbu.edu/,https://www.jbu.edu/admissions/,https://www.jbu.edu/apply/,https://www.jbu.edu/financial-aid,https://admissions.jbu.edu/register/net-price-calculator,"Private not-for-profit, 4-year or above",Private nonprofit,Master degree,"1,000 - 4,999",No,No,Town: Distant,-94.560283,36.189812,00110000  ,710239576,Dr Charles W. Pollard,President,True
106342,Lyon College, ,2300 Highland Road,Batesville,AR,72501,Independence County,Southeast,8703077000,www.lyon.edu/,www.lyon.edu/admission,https://lyon-uga.edu.185r.net/survey/?id=112,https://www.lyon.edu/financial-aid,https://lyon.virtueanalytics.com/#!/home/npc,"Private not-for-profit, 4-year or above",Private nonprofit,Master degree,"Under 1,000",No,No,Town: Remote,-91.625354,35.777619,00108800  ,710246213,Melissa Taverner,President,False
107512,Ouachita Baptist University,OBU,410 Ouachita St,Arkadelphia,AR,71998-0001,Clark County,Southeast,8702455000,obu.edu/,obu.edu/admissions,obu.edu/apply,obu.edu/finaid,https://admissions.obu.edu/register/netpricecalculator,"Private not-for-profit, 4-year or above",Private nonprofit,Master degree,"1,000 - 4,999",No,No,Town: Distant,-93.052471,34.126093,00110200  ,710239383,Ben R. Sells,President,True
107600,Philander Smith University,PSU,900 W. Daisy Bates Drive,Little Rock,AR,72202-3799,Pulaski County,Southeast,5013759845,https://www.philander.edu/,https://www.philander.edu/admissions/,https://www.philander.edu/admissions/,https://www.philander.edu/admissions/applying-for-aid/,https://www.philander.edu/admissions/paying-for-college/net-price-calculator,"Private not-for-profit, 4-year or above",Private nonprofit,Master degree,"Under 1,000",Yes,No,City: Midsize,-92.283015,34.737131,00110300  ,710239729,Dr. Maurice D.Gipson,Interim President and CEO,False
107983,Southern Arkansas University Main Campus, ,100 E. University,Magnolia,AR,71753,Columbia County,Southeast,8702354000,https://www.saumag.edu/,https://web.saumag.edu/admissions/,https://web.saumag.edu/admissions/apply/,https://web.saumag.edu/finaid/,https://www.saumag.edu/netprice/,"Public, 4-year or above",Public,Doctoral degree,"1,000 - 4,999",No,No,Town: Remote,-93.235922,33.291618,00110700  ,716007749,Bruno Hicks,President,False
458885,Strayer University-Arkansas, ,"322 Main Street, Ste 501",Little Rock,AR,72201,Pulaski County,Southeast,8774457180,www.strayer.edu/campus-locations/arkansas/little-rock,https://www.strayer.edu/admissions/how-to-apply,https://application.strayer.edu/,https://www.strayer.edu/tuition-and-financial-aid/financial-aid,https://strayer.aidcalc.cloud/netprice.htm,"Private for-profit, 4-year or above",Private for-profit,Master degree,"Under 1,000",No,No,City: Midsize,-92.271192,34.745489,00145984  ,520500740,Antoinette Farmer-Thompson,President,False
106397,University of Arkansas,University of Arkansas | Arkansas,"1125 W Maple St, Administration Bldg 425",Fayetteville,AR,72701,Washington County,Southeast,4795752000,https://www.uark.edu/,https://admissions.uark.edu/,https://admissions.uark.edu/apply/,https://finaid.uark.edu/,https://finaid.uark.edu/aid-calculator.php,"Public, 4-year or above",Public,Doctoral degree,"20,000 and above",No,No,City: Midsize,-94.176981,36.070009,00110800  ,716003252,Charles F. Robinson,Chancellor,True
442569,University of Arkansas Grantham, ,2402 N University Ave,LIttle Rock,AR,72207,Pulaski County,Southeast,8009552527,https://www.uagrantham.edu/,https://www.uagrantham.edu/online-college-admissions/,https://www.uagrantham.edu/apply-now/,https://www.uagrantham.edu/online-college-tuition/financial-aid-awarding-process/,www.uagrantham.edu/online-college-tuition/net-price-calculator/,"Public, 4-year or above",Public,Master degree,"5,000 - 9,999",No,No,City: Midsize,-92.343582,34.775996,04122300  ,872164679,Lindsay Bridgeman,Chancellor,False
108056,University of Arkansas System Office, ,2404 N University,Little Rock,AR,72207-3608,Pulaski County,Southeast,5016862500,www.uasys.edu/, , , ,www.uasys.edu/,Administrative Unit,Public,Doctoral degree,Not applicable,No,No,City: Midsize,-92.343582,34.775996,00800800  ,716003252,Dr. Donald R. Bobbitt,President,False
106245,University of Arkansas at Little Rock,UA Little Rock|University of Arkansas-Little Rock|Arkansas Little Rock|,2801 S University Ave,Little Rock,AR,72204,Pulaski County,Southeast,5015693000,ualr.edu/www/,ualr.edu/admissions/,ualr.edu/admissions/application/,ualr.edu/financialaid/,ualr.edu/finaid/npc/npcalc.htm,"Public, 4-year or above",Public,Doctoral degree,"5,000 - 9,999",No,No,City: Midsize,-92.339778,34.723254,00110100  ,710236904,Dr. Christina Drale,Chancellor,True
106485,University of Arkansas at Monticello,UAM,Highway 425 South,Monticello,AR,71656,Drew County,Southeast,8704601026,www.uamont.edu/,www.uamont.edu/admissions/index.html,https://weevilnetcs.uamont.cloud/psc/csprd/EMPLOYEE/SA/c/CTF_MENU.CTF_C_SIGNON.GBL?Page=CTF_C_SIGNON&Action=U&CTF_ID=UAM_APP1&TargetFrameName=None,www.uamont.edu/financial-aid/index.html,www.uamont.edu/NetPrice/npcalc.htm,"Public, 4-year or above",Public,Master degree,"1,000 - 4,999",No,No,Town: Remote,-91.811153,33.590909,00108500  ,716008509,Dr. Peggy Doss,Chancellor,False
106412,University of Arkansas at Pine Bluff,UAPB,1200 N University Mail Slot 4789,Pine Bluff,AR,71601,Jefferson County,Southeast,8705758000,www.uapb.edu/,www.uapb.edu/admissions/,https://www.uapb.edu/admissions/,www.uapb.edu/administration/division-of-enrollment-management-and-student-success/office-of-student-financial-services/,https://www.uapb.edu/admissions/net-price-calculator,"Public, 4-year or above",Public,Doctoral degree,"1,000 - 4,999",Yes,No,Town: Distant,-92.018683,34.244031,00108600  ,716010030,Andrea Stewart,Interim Chancellor,False
106263,University of Arkansas for Medical Sciences,UAMS,4301 W Markham,Little Rock,AR,72205-7199,Pulaski County,Southeast,5016867000,https://www.uams.edu/,https://students.uams.edu/future-students/,https://students.uams.edu/apply/,https://students.uams.edu/financial-services/financial-aid/,https://studentfinancialservices.uams.edu/tuition-and-fees/,"Public, 4-year or above",Public,Doctoral degree,"1,000 - 4,999",No,No,City: Midsize,-92.322348,34.750152,00110900  ,716046242,"Cam Patterson, M.D., MBA",Chancellor,False
108092,University of Arkansas-Fort Smith,UA Fort Smith; UAFS,5210 Grand Ave,Fort Smith,AR,72913-3649,Sebastian County,Southeast,4797887000,https://uafs.edu/,https://uafs.edu/admissions/,https://lions.uafs.edu/apply/,https://uafs.edu/tuition-and-aid/,https://uafs.edu/tuition-and-aid/net-price-calculator.html,"Public, 4-year or above",Public,Master degree,"5,000 - 9,999",No,No,City: Small,-94.373729,35.384184,00111000  ,710394794,Terisa Riley,Chancellor,True
106704,University of Central Arkansas, ,201 Donaghey Ave,Conway,AR,72035-0001,Faulkner County,Southeast,5014505000,www.uca.edu/,uca.edu/admissions,uca.edu/admissions/apply,uca.edu/financialaid/,uca.edu/financialaid/financial-aid-net-price-calculator/,"Public, 4-year or above",Public,Doctoral degree,"10,000 - 19,999",No,No,City: Small,-92.457672,35.077945,00109200  ,716001828,Houston Davis,President,True
107558,University of the Ozarks,Ozarks,415 N College Ave,Clarksville,AR,72830,Johnson County,Southeast,8002648636,https://ozarks.edu/,https://ozarks.edu/admissions-aid,https://ozarks.edu/admissions-aid/how-to-apply,https://ozarks.edu/admissions-aid/costs-and-aid,https://ozarks.edu/admissions-aid/costs-and-aid/costs-of-attendance/net-price-calculator/,"Private not-for-profit, 4-year or above",Private nonprofit,Bachelor degree,"Under 1,000",No,No,Town: Remote,-93.467221,35.476278,00109400  ,710236867,"Richard L. ""Rich"" Dunsworth",President,False
107877,Williams Baptist University, ,60 W Fulbright Avenue,Walnut Ridge,AR,72476,Lawrence County,Southeast,8708866741,https://williamsbaptistuniversity.com/,https://williamsbu.edu/admission-requirements-staff/,https://williamsbu.edu/apply/,https://williamsbu.edu/costs/,https://williamsbu.edu/wp-content/uploads/2023/08/index.html,"Private not-for-profit, 4-year or above",Private nonprofit,Master degree,"Under 1,000",No,No,Rural: Distant,-90.940277,36.125676,00110600  ,710240677,Dr. Stan Norman,President,False
240736,American Samoa Community College,ASCC,P.O. Box 2609,Pago Pago,AS,96799-2609,Western District,Outlying Areas,68469927223570,www.amsamoa.edu/,www.amsamoa.edu/admissions.html,www.amsamoa.edu/files/admissionsapp.pdf,www.amsamoa.edu/financialaid.html,www.amsamoa.edu/netpricecalc/npcalc.htm,"Public, 4-year or above",Public,Bachelor degree,"Under 1,000",No,No,Rural: Fringe,-170.742774,-14.322636,01001000  ,660516639,Rosevonne Pato,President,False
445027,American InterContinental University System,AIUS,"2200 E Germann Road, Suite 100",Chandler,AZ,85286,Maricopa County,Southwest,8777013800,https://www.aius.education/,https://www.aius.education/about-aius/institutions,https://www.aius.education/about-aius/institutions,https://www.aius.education/about-aius/institutions,https://www.aius.education/about-aius/institutions,"Private for-profit, 4-year or above",Private for-profit,Doctoral degree,"10,000 - 19,999",No,No,City: Large,-111.804036,33.278816,02113600  ,364302828,John Kline,President,False
420802,Arizona Board of Regents, ,"2700 N Central Ave, Suite 400",Phoenix,AZ,85004,Maricopa County,Southwest,6022292500,www.azregents.edu/, , , , ,Administrative Unit,Public,Doctoral degree,Not applicable,No,No,City: Large,-112.074267,33.478133,02598000  ,866004791,Chad Sampson,Executive Director,False
105899,Arizona Christian University, ,1 W. Firestorm Way,Glendale,AZ,85306-3216,Maricopa County,Southwest,6024895300,https://arizonachristian.edu/,https://arizonachristian.edu/admissions/,https://apply.arizonachristian.edu/,https://www.arizonachristian.edu/student-financial-services/,https://www.arizonachristian.edu/financial-aid/calculator/,"Private not-for-profit, 4-year or above",Private nonprofit,Master degree,"1,000 - 4,999",No,No,Suburb: Large,-112.181776,33.622952,00711300  ,860186050,Len Munsil,President,False
495457,Arizona College of Nursing-Phoenix, ,"16404 North Black Canyon Highway, Suite 200",Phoenix,AZ,85053-4058,Maricopa County,Southwest,8557068382,https://www.arizonacollege.edu/, , , ,https://www.arizonacollege.edu/admissions/financial-aid/net-price-calculator/,"Private for-profit, 4-year or above",Private for-profit,Bachelor degree,"1,000 - 4,999",No,No,City: Large,-112.117327,33.635804,03115008  ,431537880,Jason Anderson,Chief Executive Officer,False
421708,Arizona College of Nursing-Tempe, ,1620 West Fountainhead Parkway,Tempe,AZ,85282-1840,Maricopa County,Southwest,8557068382,www.arizonacollege.edu/, , , ,https://www.arizonacollege.edu/admissions/financial-aid/net-price-calculator/,"Private for-profit, 4-year or above",Private for-profit,Bachelor degree,"1,000 - 4,999",No,No,City: Midsize,-111.965808,33.403079,03115000  ,431537880,Jason Anderson,Chief Executive Officer,False
495448,Arizona College of Nursing-Tucson, ,"5285 East Williams Circle, Suite 1000",Tucson,AZ,85711,Pima County,Southwest,8557068382,https://www.arizonacollege.edu/, , , ,https://www.arizonacollege.edu/admissions/financial-aid/net-price-calculator/,"Private for-profit, 4-year or above",Private for-profit,Bachelor degree,"Under 1,000",No,No,City: Large,-110.880434,32.22113,03115007  ,431537880,Jason Anderson,Chief Executive Officer,False
446039,Arizona School of Acupuncture and Oriental Medicine,ASAOM,2856 E Fort Lowell Rd,Tucson,AZ,85716-1518,Pima County,Southwest,5207950787101,www.asaom.edu/,www.asaom.edu/admissions,www.asaom.edu/,www.asaom.edu/tuition,www.asaom.edu/tuition,"Private for-profit, 4-year or above",Private for-profit,Master degree,"Under 1,000",No,No,City: Large,-110.929118,32.264559,03695500  ,860817261,Susan Wagner,Director of Federal Programs,False
104151,Arizona State University Campus Immersion,ASU Tempe,University Drive and Mill Avenue,Tempe,AZ,85287,Maricopa County,Southwest,8552785080,www.asu.edu/,https://admission.asu.edu/contact,https://webapp4.asu.edu/uga_admissionsapp/,https://students.asu.edu/contact/financialaid,https://app.meadowfi.com/asu,"Public, 4-year or above",Public,Doctoral degree,"20,000 and above",No,No,City: Midsize,-111.934383,33.417721,00108100  ,860196696,Michael M. Crow,President,False
483124,Arizona State University Digital Immersion,ASU Skysong,1365 N Scottsdale Rd,Scottsdale,AZ,85257,Maricopa County,Southwest,8552785080,www.asu.edu/,https://admission.asu.edu/contact,https://webapp4.asu.edu/uga_admissionsapp/,https://students.asu.edu/contact/financialaid,https://app.meadowfi.com/asu,"Public, 4-year or above",Public,Doctoral degree,"20,000 and above",No,No,City: Midsize,-111.924487,33.463517,00108159  ,860196696,Michael M. Crow,President,False
454829,Aspen University, ,"4615 E. Elwood St., Suite 100",Phoenix,AZ,85040,Maricopa County,Southwest,3033334224,https://aspen.edu/,https://aspen.smartcatalogiq.com/academic-year-2024-2025/academic-catalog/academic-information-and-policies/admission-requirements/,https://application.aspen.edu/,https://aspen.edu/federal-financial-aid/,https://www.aspen.edu/net-price-calculator,"Private for-profit, 4-year or above",Private for-profit,Doctoral degree,"1,000 - 4,999",No,No,City: Large,-111.981317,33.412164,04080300  ,800133504,"Cheri St. Arnauld, PhD",Chief Academic Officer,False
104090,Brookline College-Phoenix, ,"2445 W. Dunlap Ave., Ste. 100",Phoenix,AZ,85021,Maricopa County,Southwest,8888751353,www.brooklinecollege.edu/,brooklinecollege.edu/admissions/,https://www.brooklinecollege.edu/admissions/application/,brooklinecollege.edu/financial-aid/,https://enroll-brookline.educationpartners.com/Npc?NULL=NULL#NULL,"Private for-profit, 4-year or above",Private for-profit,Master degree,"Under 1,000",No,No,City: Large,-112.112473,33.566102,02218800  ,141991211,Don Corvin,Sr. Vice President of Compliance,False
438179,Brookline College-Tucson, ,300 S. Craycroft Rd Suite 100,Tucson,AZ,85711,Pima County,Southwest,8889137207,www.brooklinecollege.edu/,www.brooklinecollege.edu/admissions/,https://www.brooklinecollege.edu/admissions/application/,www.brooklinecollege.edu/financial-aid/,https://enroll-brookline.educationpartners.com/Npc?NULL=NULL#NULL,"Private for-profit, 4-year or above",Private for-profit,Bachelor degree,"Under 1,000",No,No,City: Large,-110.875869,32.217799,02218805  ,141991211,Don Corvin,Sr. Vice President of Compliance,False
110219,Bryan University, ,350 W Washington St,Tempe,AZ,85281,Maricopa County,Southwest,6023842555,bryanuniversity.edu/,bryanuniversity.edu/,https://online.bryanuniversity.edu/Applicant/ApplyOnline_CreateAccount.aspx,bryanuniversity.edu/,bryanuniversity.edu/about/consumer-info/net-price-calculator/,"Private for-profit, 4-year or above",Private for-profit,Master degree,"1,000 - 4,999",No,No,City: Midsize,-111.944197,33.437779,00716400  ,450509144,Eric Evans,President,False
454245,Chamberlain University-Arizona,Chamberlain College of Nursing–Phoenix,20410 N 19th Avenue,Phoenix,AZ,85027,Maricopa County,Southwest,6023312720,https://www.chamberlain.edu/, ,https://community.chamberlain.edu/s/application,https://www.chamberlain.edu/admissions/financial-aid-scholarships,https://www.chamberlain.edu/admissions/financial-aid-scholarships/calculator,"Private for-profit, 4-year or above",Private for-profit,Bachelor degree,"Under 1,000",No,No,City: Large,-112.100547,33.670583,00638503  ,202452410,Karen Cox,President,False
104425,Cochise County Community College District,Cochise College,901 N Colombo Ave,Sierra Vista,AZ,85635-2317,Cochise County,Southwest,5205150500,https://www.cochise.edu/,https://www.cochise.edu/admissions,https://apply.cochise.edu/,https://www.cochise.edu/fa/,https://www.cochise.edu/wp-content/uploads/2021/04/index.html,"Public, 4-year or above",Public,Bachelor degree,"1,000 - 4,999",No,No,City: Small,-110.246946,31.564597,00107200  ,860183151,"J.D. Rottweiler, Ph.D.",President,False
461023,Crestpoint University,Crestpoint University,717 E Maryland Ave,Phoenix,AZ,85014-1561,Maricopa County,Southwest,80037161050,https://www.crestpoint.edu/,https://www.crestpoint.edu/,https://www.crestpoint.edu/Application,www.crestpoint.edu/FinancialAid,https://www.crestpoint.edu/npcalc/npcalc.html,"Private for-profit, 4-year or above",Private for-profit,Master degree,"Under 1,000",No,No,City: Large,-112.064275,33.530663,04157400  ,421562238,Avi Katz,President,False
482422,DeVry University-Arizona,DeVry University-Phoenix,2149 W. Dunlap Ave.,Phoenix,AZ,85021,Maricopa County,Southwest,6027494500,https://www.devry.edu/,https://www.devry.edu/admissions.html,https://dv.secure.force.com/sswa/dvu/us/2?vc=170005&intcmp=Header|ApplyNow,https://www.devry.edu/tuition-financial-aid/financial-aid.html,https://my.devry.edu/npc,"Private for-profit, 4-year or above",Private for-profit,Master degree,"Under 1,000",No,No,City: Large,-112.104601,33.565758,01072702  ,362781982,Jennifer White,"Manager, Campus Operations",False
105297,Dine College, ,"Route 12, One Circle Drive",Tsaile,AZ,86556,Apache County,Southwest,9287246600,https://www.dinecollege.edu/,https://www.dinecollege.edu/admissions/admissions/,https://www.dinecollege.edu/admissions/admissions,https://www.dinecollege.edu/admissions/financial-aid/,www.dinecollege.edu/net-price-calculator/,"Public, 4-year or above",Public,Master degree,"1,000 - 4,999",No,Yes,Rural: Remote,-109.21684,36.293328,00824600  ,860215931,Charles Monty Roessel,President,False
104577,Eastern Arizona College, ,615 N. Stadium Ave.,Thatcher,AZ,85552-0769,Graham County,Southwest,9284288272,www.eac.edu/,www.eac.edu/Admissions/,eac.edu/apply/,eac.edu/costs-aid/financial-aid/,eac.clearcostcalculator.com/student/default/netpricecalculator/survey,"Public, 4-year or above",Public,Bachelor degree,"5,000 - 9,999",No,No,Town: Remote,-109.76234,32.843664,00107300  ,866000754,Todd Haynie,President,True
104586,Embry-Riddle Aeronautical University-Prescott,Embry Riddle Aeronautical University-Prescott,3700 Willow Creek Road,Prescott,AZ,86301-3720,Yavapai County,Southwest,9287776600,prescott.erau.edu/,prescott.erau.edu/admissions,prescott.erau.edu/admissions/apply,prescott.erau.edu/financial-aid,prescott.erau.edu/financial-aid/net-price-calculator,"Private not-for-profit, 4-year or above",Private nonprofit,Master degree,"1,000 - 4,999",No,No,City: Small,-112.449741,34.616766,00147902  ,590936101,"P. Barry Butler, Ph.D.",President,False
105145,GateWay Community College, ,108 N. 40th Street,Phoenix,AZ,85034,Maricopa County,Southwest,6023925000,www.gatewaycc.edu/, , , ,www.gatewaycc.edu/pay-college/financial-planning,"Public, 4-year or above",Public,Bachelor degree,"5,000 - 9,999",No,No,City: Large,-111.997077,33.449686,00830300  ,860185552,Dr. Amy Diaz,President,False
104708,Glendale Community College, ,6000 W Olive Ave,Glendale,AZ,85302,Maricopa County,Southwest,6238453000,www.gccaz.edu/, , , ,https://www.maricopa.edu/students/tuition-payment-information/net-price-calculators/glendale-community-college,"Public, 4-year or above",Public,Bachelor degree,"10,000 - 19,999",No,No,Suburb: Large,-112.190735,33.570226,00107600  ,860185552,Dr. Tiffany Hernandez,President,False
104717,Grand Canyon University,GCU,3300 W Camelback Rd,Phoenix,AZ,85017,Maricopa County,Southwest,8008009776,www.gcu.edu/,https://www.gcu.edu/admissions,https://www.gcu.edu/, ,https://www.gcu.edu/tuition-and-financial-aid,"Private for-profit, 4-year or above",Private for-profit,Doctoral degree,"20,000 and above",No,No,City: Large,-112.129929,33.513231,00107400  ,472507725,Brian Mueller,President,False
495280,Indian Bible College, ,2237 East Cedar Avenue,Flagstaff,AZ,86004-1919,Coconino County,Southwest,9287743890,https://www.indianbible.org/,https://www.indianbible.org/admissions/,www.indianbible.org/admissions/apply/, ,www.indianbible.org/consumer-information/,"Private not-for-profit, 4-year or above",Private nonprofit,Bachelor degree,"Under 1,000",No,No,City: Small,-111.615734,35.21783,04291400  ,860210715,Dr. Jason Koppen,President,False
436614,International Baptist College and Seminary, ,2211 W Germann Road,Chandler,AZ,85286,Maricopa County,Southwest,4802457903,https://www.ibcs.edu/,https://www.ibcs.edu/admissions/,https://www.ibcs.edu/apply/,https://www.ibcs.edu/financial-aid/,https://www.ibcs.edu/cost/,"Private not-for-profit, 4-year or above",Private nonprofit,Doctoral degree,"Under 1,000",No,No,City: Large,-111.879629,33.273788,03347300  ,860257221,Nathan Mestler,President,False
498623,Justice University, ,2777 South Gilbert Road,Chandler,AZ,85286-5170,Maricopa County,Southwest,4808088990,https://www.justiceuniversity.edu/,https://www.justiceuniversity.edu/apply,https://www.justiceuniversity.edu/apply,https://www.justiceuniversity.edu/financialaid,https://www.justiceuniversity.edu/financialaid,"Private not-for-profit, 4-year or above",Private nonprofit,Bachelor degree,"Under 1,000",No,No,City: Large,-111.787434,33.265556,04311200  ,843304784,Palmer Chinchen,President,False
105136,Maricopa Community College System Office, ,2411 W 14th St,Tempe,AZ,85281-6942,Maricopa County,Southwest,4807318000,https://www.maricopa.edu/, , , , ,Administrative Unit,Public,Bachelor degree,Not applicable,No,No,City: Midsize,-111.975786,33.412915,00107500  ,860185552,Dr. Steven Gonzales,Chancellor,False
105154,Mesa Community College, ,1833 W Southern Ave,Mesa,AZ,85202,Maricopa County,Southwest,4804617000,www.mesacc.edu/,https://www.mesacc.edu/admissions-records, ,https://www.mesacc.edu/financial-aid,www.mesacc.edu/students/student-rights-responsibilities/net-price-calculator,"Public, 4-year or above",Public,Bachelor degree,"10,000 - 19,999",No,No,City: Large,-111.871255,33.390323,00107700  ,860185552,"Richard J. Daniel, Ph.D.",President,False
423643,Midwestern University-Glendale, ,19555 N 59th Ave,Glendale,AZ,85308,Maricopa County,Southwest,6235723200,https://www.midwestern.edu/,https://www.midwestern.edu/admissions, ,https://www.midwestern.edu/institutional-disclosures/student-financial-services-disclosure,https://www.midwestern.edu/admissions/tuition-and-financial-aid/tuition-and-costs/cost-of-attendance,"Private not-for-profit, 4-year or above",Private nonprofit,Doctoral degree,"1,000 - 4,999",No,No,Suburb: Large,-112.183633,33.663853,00165701  ,363377698,Kathleen Goeppinger,President & CEO,False
105330,Northern Arizona University,NAU,"1900 S Knoles Dr, Babbitt Administrative Center, Room 200",Flagstaff,AZ,86011-4092,Coconino County,Southwest,9285239011,https://nau.edu/,https://nau.edu/admissions/,https://nau.edu/how-to-apply,https://nau.edu/office-of-scholarships-and-financial-aid/,https://app.meadowfi.com/nau,"Public, 4-year or above",Public,Doctoral degree,"20,000 and above",No,No,City: Small,-111.653724,35.188449,00108200  ,742579628,José Luis Cruz Rivera,President,False
105349,Northland Pioneer College,NPC,2251 E. Navajo Blvd.,Holbrook,AZ,86025-0610,Navajo County,Southwest,8002667845,www.npc.edu/,www.npc.edu/recruitment,www.npc.edu/Application,www.npc.edu/financial-aid-scholarships,www.npc.edu/financial-aid-scholarships/net-price-calculator,"Public, 4-year or above",Public,Bachelor degree,"1,000 - 4,999",No,No,Rural: Remote,-110.142199,34.93031,01186200  ,860277526,Dr. Michael Solomonson,College Interim President,False
464226,Ottawa University-Surprise,OUAZ-Surprise,15950 N. Civic Center Plaza,Surprise,AZ,85374,Maricopa County,Southwest,8555461342,www.ottawa.edu/ouaz/home,www.ottawa.edu/ouaz/admissions/admissions-process,www.ottawa.edu/ouaz/apply-now,www.ottawa.edu/ouaz/admissions/financial-aid,www.ottawa.edu/ouaz/admissions/financial-aid,"Private not-for-profit, 4-year or above",Private nonprofit,Post-masters certificate,"Under 1,000",No,No,Suburb: Large,-112.368233,33.628923,00193722  ,480543772,Dr. Dennis Tyner,President,False
364016,Paradise Valley Community College, ,18401 N 32nd St,Phoenix,AZ,85032,Maricopa County,Southwest,6027876500,https://www.paradisevalley.edu/,https://www.paradisevalley.edu/students/admissions, ,https://www.paradisevalley.edu/students/financial-aid,https://www.paradisevalley.edu/students/financial-aid/net-price-calculator,"Public, 4-year or above",Public,Bachelor degree,"5,000 - 9,999",No,No,City: Large,-112.009865,33.652135,02623600  ,860185552,Jana Schwartz,President,False
495916,Pathways College, ,"2226 N. 7th Street, Suite 220",Phoenix,AZ,85006,Maricopa County,Southwest,8885327282,https://www.pathwayscollege.edu/,https://pathwayscollege.edu/admissions/,https://pat-web.scansoftware.com/cafeweb/tapestry?service=home&mode=1, ,https://pathwayscollege.edu/netprice/net-price.html,"Private not-for-profit, 4-year or above",Private nonprofit,Bachelor degree,"Under 1,000",No,No,City: Large,-112.06553,33.472223,04295300  ,383985918,Gary Wilfert,Chancellor,False
105428,Phoenix College, ,1202 W Thomas Rd,Phoenix,AZ,85013,Maricopa County,Southwest,6022642492,www.phoenixcollege.edu/,https://www.phoenixcollege.edu/become-student/admissions-and-records, ,https://www.phoenixcollege.edu/paying-college/financial-aid,www.phoenixcollege.edu/paying-college/tuition-and-fees/net-price-calculators,"Public, 4-year or above",Public,Bachelor degree,"10,000 - 19,999",No,No,City: Large,-112.088293,33.481361,00107800  ,860185552,Dr. Kimberly Britt,President,False
447698,Phoenix Institute of Herbal Medicine & Acupuncture,PIHMA College & Clinic,301 E Bethany Home Rd Ste A100,Phoenix,AZ,85012,Maricopa County,Southwest,6022741885,www.pihma.edu/,www.pihma.edu/degree-programs,www.pihma.edu/catalog-and-forms/,www.pihma.edu/financial-aid/,https://www.pihma.edu/how-to-finance,"Private for-profit, 4-year or above",Private for-profit,Doctoral degree,"Under 1,000",No,No,City: Large,-112.068783,33.52289,03617500  ,860763635,Catherine Niemiec,President,False
381459,Phoenix Seminary, ,7901 E. Shea Blvd.,Scottsdale,AZ,85260,Maricopa County,Southwest,60242949454945,www.ps.edu/,www.ps.edu/admissions/,www.ps.edu/apply,www.ps.edu/admissions/financial-aid/,www.ps.edu/financial-aid/,"Private not-for-profit, 4-year or above",Private nonprofit,Doctoral degree,"Under 1,000",No,No,City: Midsize,-111.910665,33.581645,03478400  ,860711495,David Hogg,PRESIDENT,False
105534,Pima Medical Institute-Tucson, ,"2121 N Craycroft Road, Bldg 1",Tucson,AZ,85712,Pima County,Southwest,5203261600,https://pmi.edu/, , , ,https://secure.pmi.edu/npcalc/,"Private for-profit, 4-year or above",Private for-profit,Master degree,"1,000 - 4,999",No,No,City: Large,-110.878783,32.248067,02217100  ,860260863,Todd Matthews,Campus Director,False
105589,Prescott College,Prescot College | Prescott University | Prescott University | Prescott | PC | Prescott Center for Alternative Education,220 Grove Ave,Prescott,AZ,86301,Yavapai County,Southwest,8773502100,https://prescott.edu/,https://prescott.edu/admissions,https://prescott.edu/admissions/apply/,https://prescott.edu/admissions/financial-aid,shoppingsheet.com/Shopping/Landing/prescott,"Private not-for-profit, 4-year or above",Private nonprofit,Doctoral degree,"Under 1,000",No,No,City: Small,-112.477185,34.5452,02065300  ,860294012,Barbara Morris,President,True
105668,Rio Salado College, ,2323 W 14th St,Tempe,AZ,85281,Maricopa County,Southwest,4805178000,www.riosalado.edu/,https://www.riosalado.edu/student-resources/admissions-records-and-registration, ,https://www.riosalado.edu/student-resources/financial-aid,cdn.maricopa.edu/npc/rsc/npcalc.htm,"Public, 4-year or above",Public,Bachelor degree,"10,000 - 19,999",No,No,City: Midsize,-111.97417,33.413309,02177500  ,860185552,Dr. Kate Smith,President,False
105747,Scottsdale Community College, ,9000 E Chaparral Rd,Scottsdale,AZ,85256,Maricopa County,Southwest,4804236000,www.scottsdalecc.edu/, , , ,https://www.scottsdalecc.edu/students/student-business-services/net-price-calculator,"Public, 4-year or above",Public,Bachelor degree,"5,000 - 9,999",No,No,Rural: Fringe,-111.885186,33.51135,00830400  ,860185552,Dr. Eric Leshinskie,President,False
475839,Sessions College for Professional Design,Sessions College,"404 South Mill Avenue, Suite 201",Tempe,AZ,85281,Maricopa County,Southwest,4802121704,https://www.sessions.edu/,https://www.sessions.edu/admissions/,https://www.sessions.edu/application-form/,https://www.sessions.edu/financial-aid/,https://www.sessions.edu/financial-aid/consumer-information/npc/npcalc.htm,"Private for-profit, 4-year or above",Private for-profit,Bachelor degree,"Under 1,000",No,No,City: Midsize,-111.940811,33.426822,04217600  ,133947889,Gordon Drummond,President,False
420246,Sonoran University of Health Sciences, ,2140 E Broadway Rd,Tempe,AZ,85282,Maricopa County,Southwest,4808589100200,www.sonoran.edu/,www.sonoran.edu/future-students/admission,https://myapplication.force.com/ERx_Forms__Portal_Login,https://www.sonoran.edu/admissions/financial-aid/,www.sonoran.edu/admissions/tuition/,"Private not-for-profit, 4-year or above",Private nonprofit,Doctoral degree,"Under 1,000",No,No,City: Midsize,-111.89442,33.40789,03107000  ,860702049,Paul Mittman,President,False
105792,South Mountain Community College, ,7050 S 24th St,Phoenix,AZ,85042,Maricopa County,Southwest,6022438135,www.southmountaincc.edu/, , , ,www.southmountaincc.edu/disclosures/,"Public, 4-year or above",Public,Bachelor degree,"1,000 - 4,999",No,No,City: Large,-112.032635,33.382406,02146600  ,860185552,Dr. Richard Daniel,President,False
104665,The School of Architecture,TSOA,"7610 E. McDonald Dr, Suite G",Scottsdale,AZ,85250,Maricopa County,Southwest,4807504470,https://tsoa.edu/,https://tsoa.edu/apply/m-arch,https://tsoa.edu/apply/m-arch,https://tsoa.edu/programs/financial-aid,https://tsoa.edu/programs/financial-aid,"Private not-for-profit, 4-year or above",Private nonprofit,Master degree,"Under 1,000",No,No,City: Midsize,-111.916785,33.524271,02533200  ,821898299,Chris Lasch,President,False
363934,University of Advancing Technology, ,2625 W Baseline Rd,Tempe,AZ,85283,Maricopa County,Southwest,6023838228,https://www.uat.edu/,https://www.uat.edu/admissions,https://www.uatfastapp.com/,https://www.uat.edu/tuition,https://www.uat.edu/uploads/gov_info/netpricecalculator.html,"Private for-profit, 4-year or above",Private for-profit,Master degree,"Under 1,000",No,No,City: Midsize,-111.976087,33.377712,02559000  ,860464544,Karla Aragon-Joyce,President,False
104179,University of Arizona,The University of Arizona | UArizona | U of A | UofA | UA | University of AZ | Univ. of AZ | The Univ. of AZ,1401 E University Blvd,Tucson,AZ,85721-0066,Pima County,Southwest,5206212211,https://www.arizona.edu/,https://www.arizona.edu/admissions,https://slate.admissions.arizona.edu/apply,https://financialaid.arizona.edu/,https://financialaid.arizona.edu/cost/npc,"Public, 4-year or above",Public,Doctoral degree,"20,000 and above",No,No,City: Large,-110.950815,32.232672,00108300  ,742652689,Dr. Robert C. Robbins,President,True
484613,University of Phoenix-Arizona, ,4035 South Riverpoint Parkway,Phoenix,AZ,85040,Maricopa County,Southwest,8667660766,https://www.phoenix.edu/,https://www.phoenix.edu/admissions.html,https://www.phoenix.edu/application/quick-app,https://www.phoenix.edu/student-orientation/paying-for-school.html,https://www.phoenix.edu/tuition_and_financial_options/net-price-calculator.html,"Private for-profit, 4-year or above",Private for-profit,Doctoral degree,"20,000 and above",No,No,City: Large,-112.012761,33.41128,02098800  ,942473210,Chris Lynne,President,False
106148,Yavapai College, ,1100 E Sheldon St,Prescott,AZ,86301,Yavapai County,Southwest,9284457300,https://www.yc.edu/,https://www.yc.edu/v6/admissions/,https://www.yc.edu/v6/admissions/getting-started.html,https://www.yc.edu/v6/financial-aid/,https://www.yc.edu/v6/public/compare/cost-comparison.html,"Public, 4-year or above",Public,Bachelor degree,"5,000 - 9,999",No,No,City: Small,-112.453395,34.547495,00107900  ,860208371,Dr. Lisa Rhine,President,False
444325,ATI College-Whittier, ,15141 Whittier Blvd Suite 420,Whitter,CA,90603-0000,Los Angeles County,Far West,5628640506,www.ati.edu/,www.ati.edu/,www.ati.edu/,www.ati.edu/,www.ati.edu/financial-aid/net-price-calculator.html,"Private for-profit, 4-year or above",Private for-profit,Bachelor degree,"Under 1,000",No,No,Suburb: Large,-118.003687,33.948364,03740400  ,954776013,Katherine Cho,PRESIDENT,False
488031,Abraham Lincoln University, ,"100 West Broadway, Suite 600",Glendale,CA,91210,Los Angeles County,Far West,2132525100,https://www.alu.edu/,https://www.alu.edu/,https://www.alu.edu/apply/,https://www.alu.edu/alu-admissions/federal-financial-aid/,https://www.alu.edu/net-price-calculator/,"Private for-profit, 4-year or above",Private for-profit,Doctoral degree,"Under 1,000",No,No,City: Midsize,-118.256726,34.146294,04243800  ,954591138,Leslie Gargiulo,Chief Executive Officer,False
457271,Academy for Jewish Religion California, ,"1LMU Drive, STE 3400",Los Angeles,CA,90045,Los Angeles County,Far West,2138844133,www.ajrca.edu/,www.ajrca.edu/admissions,ajrca.edu/admissions/next-steps/,ajrca.edu/financial aid/,ajrca.edu/net price calculator,"Private not-for-profit, 4-year or above",Private nonprofit,Master degree,"Under 1,000",No,No,City: Large,-118.415744,33.97085,04155500  ,680493819,Joshua Hoffman,President and CEO,False
108232,Academy of Art University, ,79 New Montgomery,San Francisco,CA,94105,San Francisco County,Far West,8005442787,www.academyart.edu/,www.academyart.edu/admissions,www.academyart.edu/apply-for-admission/,www.academyart.edu/finances/financial-aid-office,https://npc.collegeboard.org/student/app/academyart,"Private for-profit, 4-year or above",Private for-profit,Master degree,"5,000 - 9,999",No,No,City: Large,-122.400578,37.787943,00753100  ,941637804,Elisa Stephens,President,False
108269,Academy of Chinese Culture and Health Sciences,ACCHS,"1600 Broadway, Ste. 200",Oakland,CA,94612,Alameda County,Far West,51076377870,www.acchs.edu/,acchs.edu/programs/,https://acchs.empower-xl.com/,acchs.edu/current-students/financial-aid/,studentaid.gov/aid-estimator/,"Private not-for-profit, 4-year or above",Private nonprofit,Doctoral degree,"Under 1,000",No,No,City: Large,-122.269839,37.805972,03288300  ,942881684,Andres Bella,President,False
384306,Acupuncture and Integrative Medicine College-Berkeley,AIMC,2550 Shattuck Avenue,Berkeley,CA,94704,Alameda County,Far West,5106668248123,https://www.aimc.edu/,https://www.aimc.edu/aimc-prospective-students,https://www.aimc.edu/how-to-apply,https://www.aimc.edu/financial-aid,https://www.aimc.edu/financial-aid,"Private not-for-profit, 4-year or above",Private nonprofit,Doctoral degree,"Under 1,000",No,No,City: Midsize,-122.267636,37.862754,03327400  ,943111522,David Lee,President & CEO,False
496399,Agape College of Business and Science, ,1313 P Street,Fresno,CA,93721-1827,Fresno County,Far West,5594861166,https://www.acbscollege.org/, , , ,https://www.acbscollege.org/net-price-calculator,"Private not-for-profit, 4-year or above",Private nonprofit,Bachelor degree,"Under 1,000",No,No,City: Large,-119.787874,36.741252,04292900  ,770518457,Dr. Linda Scott,Chief Executive Officer,False
495192,Alder Graduate School of Education, ,2946 Broadway,Redwood City,CA,94062,San Mateo County,Far West,6503623997,https://aldergse.edu/,https://aldergse.edu/admissions/admissions-process/,https://aldergse.edu/apply/,https://aldergse.edu/financial-supports/,https://aldergse.edu/admissions/program-costs/,"Private not-for-profit, 4-year or above",Private nonprofit,Master degree,"Under 1,000",No,No,City: Small,-122.239258,37.486305,04287000  ,474649648,Heather Kirkpatrick,President & CEO,False
487995,Alhambra Medical University,Fen Wu University of Alternative Medicine,2215 W. Mission Road,Alhambra,CA,91803,Los Angeles County,Far West,6262897719,www.amu.edu/,https://amu.edu/admissions/,www.amu.edu/admissions,www.amu.edu/financial-aid,www.amu.edu/tuition-fees,"Private for-profit, 4-year or above",Private for-profit,Doctoral degree,"Under 1,000",No,No,Suburb: Large,-118.148684,34.080181,04243100  ,470913490,David Lee,President,False
110468,Alliant International University-San Diego,Alliant,10455 Pomerado Road,San Diego,CA,92131,San Diego County,Far West,8587805771,https://www.alliant.edu/,https://www.alliant.edu/admissions/,https://apply.alliant.edu/,https://www.alliant.edu/admissions/financial-aid-and-scholarship-resources,https://www.alliant.edu/net-price-calculator,"Private for-profit, 4-year or above",Private for-profit,Doctoral degree,"1,000 - 4,999",No,No,City: Large,-117.094398,32.897056,01111700  ,205683516,Andy Vaughn,President and CEO,False
490081,America Evangelical University, ,1204 W 163rd St,Gardena,CA,90247-4432,Los Angeles County,Far West,3236430301,www.aeu.edu/,www.aeu.edu/#, , ,it21inc.net/demos/netprice-calculator/Theology/npcalc.htm,"Private not-for-profit, 4-year or above",Private nonprofit,Doctoral degree,"Under 1,000",No,No,City: Small,-118.295931,33.883102,04227100  ,954860047,Sanghoon Lee,President,False
108870,American Film Institute Conservatory,AFI Conservatory,2021 N Western Ave,Los Angeles,CA,90027-1625,Los Angeles County,Far West,3238567600,www.afi.com/,conservatory.afi.com/,conservatory.afi.com/admissions-requirements/,conservatory.afi.com/applying-for-aid/,conservatory.afi.com/tuition-and-fees/,"Private not-for-profit, 4-year or above",Private nonprofit,Master degree,"Under 1,000",No,No,City: Large,-118.310018,34.10767,02222000  ,526072925,Bob Gazzale,President and CEO,False
116846,American Jewish University,AJU,15600 Mulholland Dr,Los Angeles,CA,90077-1519,Los Angeles County,Far West,3104769777,www.aju.edu/,www.college.aju.edu/undergraduate/admissions/,www.aju.edu/,www.college.aju.edu/affordability/,www.aju.edu/financial-aid/tuition-and-fees/net-price-calculator,"Private not-for-profit, 4-year or above",Private nonprofit,Doctoral degree,"Under 1,000",No,No,City: Large,-118.471706,34.128153,00274100  ,951684064,Jeff Herbst,President,False
461263,American Medical Sciences Center, ,"225 West Broadway, Suite 410",Glendale,CA,91204-5108,Los Angeles County,Far West,8182406900100,www.amsc.edu/, , , ,amsc.edu/financial-aid/net-price-calculator/,"Private for-profit, 4-year or above",Private for-profit,Bachelor degree,"Under 1,000",No,No,City: Midsize,-118.256991,34.147117,04159700  ,954566098,Vardan Karagezian,President,False
433004,American University of Health Sciences,AUHS,1600 East Hill St,Signal Hill,CA,90755-3612,Los Angeles County,Far West,56298822782001,https://www.auhs.edu/,https://www.auhs.edu/admissions/,https://www.auhs.edu/admissions/admission-forms/,https://www.auhs.edu/resources/offices/financial-aid/,https://www.auhs.edu/media/resources/financial_aid/npcalc/npcalc.htm,"Private for-profit, 4-year or above",Private for-profit,Doctoral degree,"Under 1,000",No,No,Suburb: Large,-118.171366,33.796849,03225300  ,900753581,Kim Dang,Founder,False
457299,Angeles College, ,3440 Wilshire Blvd Ste 310,Los Angeles,CA,90010,Los Angeles County,Far West,2134872211,https://www.angelescollege.edu/,https://www.angelescollege.edu/admissionsandaid/admissions/,https://www.angelescollege.edu/,https://www.angelescollege.edu/financial-aid/,https://angelescollege.edu/npcalc.html,"Private for-profit, 4-year or above",Private for-profit,Master degree,"Under 1,000",No,No,City: Large,-118.29903,34.061223,04160400  ,870727021,Teresa Krause,School Director,False
109350,Antelope Valley Community College District, ,3041 West  Ave K,Lancaster,CA,93536-5426,Los Angeles County,Far West,6617226300,www.avc.edu/,www.avc.edu/studentservices/adminrec/,www.avc.edu/studentservices/adminrec/applyonline,www.avc.edu/studentservices/finaid/,https://misweb.cccco.edu/npc/621/npcalc.htm,"Public, 4-year or above",Public,Bachelor degree,"10,000 - 19,999",No,No,Suburb: Large,-118.186166,34.676207,00111300  ,952228663,Dr. Jennifer Zellet,President,False
245838,Antioch University-Los Angeles,AULA|Antioch|Antiok|Antioc|Antoich,400 Corporate Pointe,Culver City,CA,90230-7615,Los Angeles County,Far West,3105781080,www.antiochla.edu/,www.antiochla.edu/admissions,https://www.antiochla.edu/admissions,www.antiochla.edu/admissions,https://www.antiochla.edu/admissions,"Private not-for-profit, 4-year or above",Private nonprofit,Master degree,"Under 1,000",No,No,Suburb: Large,-118.384458,33.988533,00301002  ,310536640,Chester Haskell,Vice Chancellor for Academic Affairs,False
245847,Antioch University-Santa Barbara,AUSB,602 Anacapa Street,Santa Barbara,CA,93101,Santa Barbara County,Far West,8059628179,www.antiochsb.edu/,www.antiochsb.edu/admissions/contact-admissions/,www.antioch.edu/admission-aid/admissions/,www.antiochsb.edu/financial-aid/,www.antiochsb.edu/financial-aid/,"Private not-for-profit, 4-year or above",Private nonprofit,Doctoral degree,"Under 1,000",No,No,City: Small,-119.6958,34.419203,00301003  ,310536640,Chester Haskell,Vice Chancellor for Academic Affairs,False
498456,Arizona College of Nursing-Ontario, ,3401 North Centre Lake Drive,Ontario,CA,91761-1201,San Bernardino County,Far West,6027592200,https://www.arizonacollege.edu/, , , ,https://www.arizonacollege.edu/admissions/financial-aid/net-price-calculator/,"Private for-profit, 4-year or above",Private for-profit,Bachelor degree,"Under 1,000",No,No,City: Midsize,-117.578071,34.06676,03115013  ,431537880,Jason Anderson,Chief Executive Officer,False
109651,Art Center College of Design, ,1700 Lida St,Pasadena,CA,91103,Los Angeles County,Far West,6263962200,www.artcenter.edu/,www.artcenter.edu/admissions/overview.html,www.artcenter.edu/apply.html,www.artcenter.edu/admissions/tuition-and-aid/financial-aid/financial-aid-eligibility.html,https://tcc.ruffalonl.com/Art-Center-College-of-Design/Freshman-Calculator,"Private not-for-profit, 4-year or above",Private nonprofit,Master degree,"1,000 - 4,999",No,No,City: Midsize,-118.185102,34.169031,00111600  ,951921340,Karen Hofmann,President,False
154022,Ashford University, ,8620 Spectrum Center Boulevard,San Diego,CA,92123,San Diego County,Far West,8667111700,www.uagc.edu/,www.uagc.edu/admissions/,https://apply.uagc.edu/applyweb/,www.uagc.edu/tuition-financial-aid,https://app.meadowfi.com/azglobal,"Private for-profit, 4-year or above",Private for-profit,Doctoral degree,"20,000 and above",No,No,City: Large,-117.141961,32.8273,00188100  ,742652689,Dr. Gary Packard,Senior Vice Provost of Online Initiatives,False
109785,Azusa Pacific University, ,901 E Alosta,Azusa,CA,91702-7000,Los Angeles County,Far West,6269693434,www.apu.edu/,www.apu.edu/admissions/,https://www.apu.edu/undergraduate-admissions/apply/,www.apu.edu/sfs/,https://www.apu.edu/undergraduate-admissions/financialaid/calculator/,"Private not-for-profit, 4-year or above",Private nonprofit,Doctoral degree,"5,000 - 9,999",No,No,Suburb: Large,-117.888375,34.130047,00111700  ,951744369,Adam Morris,President,True
109819,Bakersfield College, ,1801 Panorama Dr,Bakersfield,CA,93305-1299,Kern County,Far West,6613954011,https://www.bakersfieldcollege.edu/,https://www.bakersfieldcollege.edu/services-and-resources/admissions/index.html,https://www.bakersfieldcollege.edu/enrollment-aid/apply/index.html,https://www.bakersfieldcollege.edu/enrollment-aid/financial-aid/index.html,https://misweb.cccco.edu/npc/521/npcalc.htm,"Public, 4-year or above",Public,Bachelor degree,"20,000 and above",No,No,City: Large,-118.973753,35.40911,00111800  ,956006644,Jerry Fliger,President,False
108861,Berkeley School of Theology,BST,2606 Dwight Way,Berkeley,CA,94704-3029,Alameda County,Far West,5108411905,www.bst.edu/,www.bst.edu/?s=Admissions,www.bst.edu/?s=Admissions,https://www.bst.edu/prospective-students/financing-a-seminary-education/,https://www.bst.edu/prospective-students/tuition-and-fees/,"Private not-for-profit, 4-year or above",Private nonprofit,Doctoral degree,"Under 1,000",No,No,City: Midsize,-122.256149,37.865252,00112000  ,941156250,James Brenneman,President,False
110060,Bethesda University,Bethesda University,730 N. Euclid St,Anaheim,CA,92801,Orange County,Far West,7146831212,www.buc.edu/,www.buc.edu/admissions,www.buc.edu/admissions,www.buc.edu/financial-aid,www.buc.edu/net-price-calculator,"Private not-for-profit, 4-year or above",Private nonprofit,Doctoral degree,"Under 1,000",No,No,City: Large,-117.941323,33.842295,03266300  ,953104298,Seung Je Jeremiah Cho,President,False
110097,Biola University, ,13800 Biola Ave,La Mirada,CA,90639-0001,Los Angeles County,Far West,5629036000,https://www.biola.edu/,https://www.biola.edu/admissions/undergrad,https://www.biola.edu/admissions/undergrad#apply-now,https://www.biola.edu/financial-aid/scholarships-and-aid/undergrad,https://www.biola.edu/financial-aid/resources/net-price-calculator#net-price,"Private not-for-profit, 4-year or above",Private nonprofit,Doctoral degree,"5,000 - 9,999",No,No,Suburb: Large,-118.014374,33.906203,00112200  ,950549600,Barry H. Corey,President,False
439367,CBD College,Community Based Education and Development,"3699 Wilshire Blvd., Fourth Floor",Los Angeles,CA,90010,Los Angeles County,Far West,2134272200,www.cbd.edu/,www.cbd.edu/admissions-enrollments/,www.cbd.edu/,www.cbd.edu/financial-aid/,www.cbd.edu/wp-content/uploads/2023/06/index.html,"Private not-for-profit, 4-year or above",Private nonprofit,Bachelor degree,"1,000 - 4,999",No,No,City: Large,-118.306221,34.06231,03250300  ,954579025,Alan Heshel,President/CEO,False
493956,Cal Northern School of Law,Cal Northern School of Law,"1395 Ridgewood Drive, Ste. 100",Chico,CA,95973-8682,Butte County,Far West,5308916900,https://www.calnorthern.edu/,https://www.calnorthern.edu/,https://www.calnorthern.edu/,https://www.calnorthern.edu/,https://calnorthern.edu/financial-information/#financial-aid,"Private for-profit, 4-year or above",Private for-profit,Doctoral degree,"Under 1,000",No,No,City: Midsize,-121.839216,39.774522,04293500  ,680359162,Sandra Brooks,Dean/CEO/President,False
433420,California Aeronautical University,California Aeronautical University,1450 Boughton Drive,Bakersfield,CA,93308,Kern County,Far West,6616155915,www.calaero.edu/,www.calaero.edu/,https://calaero.edu/contact/apply-online/,www.calaero.edu/,cloud.calaero.com/npc/npc_cau.htm,"Private for-profit, 4-year or above",Private for-profit,Master degree,"Under 1,000",No,No,Suburb: Large,-119.049264,35.434905,00998900  ,952742708,Matthew Johnston,Campus President,False
110361,California Baptist University,CBU,8432 Magnolia Ave,Riverside,CA,92504-3297,Riverside County,Far West,8772283615,www.calbaptist.edu/,www.calbaptist.edu/admissions,www.calbaptist.edu/future-students/why-cbu/applying-cbu/,www.calbaptist.edu/admissions-aid/tuition-aid/,https://calbaptist.studentaidcalculator.com/welcome.aspx,"Private not-for-profit, 4-year or above",Private nonprofit,Doctoral degree,"10,000 - 19,999",No,No,City: Large,-117.425619,33.929321,00112500  ,951890710,Ronald Ellis,President,False
447713,California Career College, ,7003 Owensmouth Avenue,Canoga Park,CA,91303-2006,Los Angeles County,Far West,8187101310,www.californiacareercollege.edu/, , , ,nces.ed.gov/collegenavigator/?q=California+Career+College&s=CA&zc=91303&zd=0&of=3&id=447713,"Private for-profit, 4-year or above",Private for-profit,Bachelor degree,"Under 1,000",No,No,City: Large,-118.601794,34.197566,03974500  ,421532386,Susan Naimi,CEO,False
112570,California College of ASU, ,1111 S. Broadway Suite,Los Angeles,CA,90015,Los Angeles County,Far West,8183458414,https://californiacollege.asu.edu/,https://californiacollege.asu.edu/admissions,https://commonapp.org/explore/california-college-asu,https://californiacollege.asu.edu/admissions/financial-aid,https://californiacollege.asu.edu/admissions/-financial-aid/cost-of-attendance,"Private not-for-profit, 4-year or above",Private nonprofit,Bachelor degree,"Under 1,000",No,No,City: Large,-118.25968,34.039355,02110200  ,952077629,Greg Bublitz,CFO,False
110370,California College of the Arts, ,145 Hooper Street,San Francisco,CA,94107-2247,San Francisco County,Far West,4157039500,www.cca.edu/,www.cca.edu/admissions,www.cca.edu/admissions/apply,www.cca.edu/admissions/financial-aid/,www.cca.edu/admissions/tuition/#section-calculator,"Private not-for-profit, 4-year or above",Private nonprofit,Master degree,"1,000 - 4,999",No,No,City: Large,-122.399451,37.767485,00112700  ,941156485,David C. Howse,President,False
488572,California Health Sciences University,CHSU,120 North Clovis Avenue,Clovis,CA,93612,Fresno County,Far West,5593253600,https://chsu.edu/,https://chsu.edu/admissions/, ,https://chsu.edu/financial-aid/, ,"Private for-profit, 4-year or above",Private for-profit,Doctoral degree,"Under 1,000",No,No,Suburb: Large,-119.701977,36.832466,04281400  ,454846058,Florence Dunn,President,False
487649,California Institute of Advanced Management,CIAM,"1000 S. Fremont Ave. Mailbox #45, Bldg A10, 4th Floor, Suite 10402",Alhambra,CA,91803,Los Angeles County,Far West,6263501500,www.ciam.edu/,www.ciam.edu/admissions,www.ciam.edu/application-for-admission,www.ciam.edu/financial-aid,https://www.ciam.edu/cost-aid,"Private not-for-profit, 4-year or above",Private nonprofit,Master degree,"Under 1,000",No,No,Suburb: Large,-118.15055,34.082467,04250600  ,452648658,Geofrey Mills,President,False
490285,California Institute of Arts & Technology, ,401 Mile of Cars Way Suite 100,National City,CA,91950,San Diego County,Far West,8775593621,www.ciat.edu/, , , ,www.ciat.edu/net-price-calculator/,"Private for-profit, 4-year or above",Private for-profit,Bachelor degree,"1,000 - 4,999",No,No,Suburb: Large,-117.106076,32.661577,04259800  ,263863091,Jamie Doyle,President/Founder,False
496186,California Institute of Arts & Technology-National City, ,401 Mile of Cars Way Suite 100,National City,CA,91950-6610,San Diego County,Far West,8775593621,https://www.ciat.edu/, , , ,https://www.ciat.edu/net-price-calculator/,"Private for-profit, 4-year or above",Private for-profit,Bachelor degree,Not reported,No,No,Suburb: Large,-117.106076,32.661577,04259801  ,263863091,Jamie Doyle,President/ Founder,False
110316,California Institute of Integral Studies,CIIS,1453 Mission Street,San Francisco,CA,94103,San Francisco County,Far West,4155756100,https://www.ciis.edu/,https://www.ciis.edu/apply,https://www.ciis.edu/apply,https://www.ciis.edu/admissions-and-financial-aid, ,"Private not-for-profit, 4-year or above",Private nonprofit,Doctoral degree,"1,000 - 4,999",No,No,City: Large,-122.416102,37.774924,01215400  ,942254303,Brock Blomberg,President,False
110404,California Institute of Technology,Caltech,1200 E California Blvd,Pasadena,CA,91125,Los Angeles County,Far West,6263956811,www.caltech.edu/,www.admissions.caltech.edu/,www.admissions.caltech.edu/apply,www.finaid.caltech.edu/,www.finaid.caltech.edu/npc,"Private not-for-profit, 4-year or above",Private nonprofit,Doctoral degree,"1,000 - 4,999",No,No,City: Midsize,-118.125878,34.137349,00113100  ,951643307,Thomas F. Rosenbaum,President,True
111081,California Institute of the Arts,CalArts,24700 W McBean Pky,Valencia,CA,91355-2397,Los Angeles County,Far West,6612551050,https://www.calarts.edu/,https://calarts.edu/admissions,https://calarts.edu/admissions/apply/,https://calarts.edu/financial-aid,https://files.calarts.edu/docs/financial-aid/calarts-net-price-calculator/,"Private not-for-profit, 4-year or above",Private nonprofit,Doctoral degree,"1,000 - 4,999",No,No,Suburb: Large,-118.566837,34.39327,00113200  ,956102146,Ravi S. Rajan,President,False
486488,California Jazz Conservatory, ,2087 Addison Street,Berkeley,CA,94704-1268,Alameda County,Far West,5108455373,www.cjc.edu/, , , ,https://cjc.edu/financial-aid/net-price-calculator/,"Private not-for-profit, 4-year or above",Private nonprofit,Bachelor degree,"Under 1,000",No,No,City: Midsize,-122.268878,37.871235,04237600  ,431983168,Nick Phillips,President,False
110413,California Lutheran University, ,60 W Olsen Rd,Thousand Oaks,CA,91360-2787,Ventura County,Far West,8054922411,www.callutheran.edu/,www.callutheran.edu/admission/,www.callutheran.edu/admission/apply.html,www.callutheran.edu/financial-aid/,https://www.callutheran.edu/financial-aid/tuition-fees/net-price-calculator.html,"Private not-for-profit, 4-year or above",Private nonprofit,Doctoral degree,"1,000 - 4,999",No,No,City: Midsize,-118.878924,34.224566,00113300  ,952962604,Dr. John Nunes,President,True
480781,California Miramar University, ,"3550 Camino Del Rio North, Suite 208",San Diego,CA,92108-1739,San Diego County,Far West,858653300011,www.calmu.edu/,https://www.calmu.edu/student-admissions-process/,https://my.calmu.edu/Applicant/ApplyOnline_Login.aspx,https://www.calmu.edu/financial-aid/,https://www.calmu.edu/net-price-calculator/,"Private for-profit, 4-year or above",Private for-profit,Doctoral degree,"Under 1,000",No,No,City: Large,-117.11851,32.77942,04189700  ,953132196,Chitpasong Vasquez,President,False
496627,California Northstate University, ,9700 West Taron Drive,Elk Grove,CA,95757-3001,Sacramento County,Far West,9166867300,www.cnsu.edu/, , ,https://www.cnsu.edu/financial-aid/,https://www.cnsu.edu/financial-aid/,"Private for-profit, 4-year or above",Private for-profit,Doctoral degree,"Under 1,000",No,No,Suburb: Large,-121.481542,38.405942,04219800  ,900781371,Dr. Alvin Cheung,President/CEO,False
110422,California Polytechnic State University-San Luis Obispo,Cal Poly,1 Grand Ave.,San Luis Obispo,CA,93407,San Luis Obispo County,Far West,8057561111,calpoly.edu/,https://www.calpoly.edu/admissions,www2.calstate.edu/apply,https://www.calpoly.edu/financial-aid,https://www.calpoly.edu/financial-aid/costs-and-affordability/undergraduate-costs-of-attendance/undergraduate-net-price-calculator,"Public, 4-year or above",Public,Master degree,"20,000 and above",No,No,Suburb: Small,-120.657311,35.299513,00114300  ,946001347,Jeffrey D. Armstrong,President,False
115755,California State Polytechnic University-Humboldt,Cal Poly Humboldt,1 Harpst Street,Arcata,CA,95521-8299,Humboldt County,Far West,7078263011,www.humboldt.edu/,www.humboldt.edu/admission-aid,https://www.calstate.edu/apply,www.humboldt.edu/financial-aid,https://www.humboldt.edu/calculator/,"Public, 4-year or above",Public,Master degree,"5,000 - 9,999",No,No,Town: Remote,-124.078293,40.877481,00114900  ,946001347,Michael Spagna,President,False
110529,California State Polytechnic University-Pomona, ,3801 W Temple Avenue,Pomona,CA,91768,Los Angeles County,Far West,9098697659,www.cpp.edu/,www.cpp.edu/admissions/,https://www2.calstate.edu/apply,www.cpp.edu/financial-aid/,https://www.cpp.edu/financial-aid/resources/net-price-calculator.shtml,"Public, 4-year or above",Public,Doctoral degree,"20,000 and above",No,No,Suburb: Large,-117.821476,34.057912,00114400  ,954255659,Soraya M. Coley,President,False
111188,California State University Maritime Academy,California State University Maritime Academy,200 Maritime Academy Dr,Vallejo,CA,94590-8181,Solano County,Far West,7076541000,https://www.csum.edu/,https://www.csum.edu/about/mission.html,https://www.csum.edu/admissions/requirements/,https://www.csum.edu/financial-aid/,https://www2.calstate.edu/attend/paying-for-college/Pages/csu-costs.aspx,"Public, 4-year or above",Public,Master degree,"Under 1,000",No,No,City: Midsize,-122.231551,38.069061,00113400  ,680316355,Michael J. Dumont,Interim President,False
110486,California State University-Bakersfield,CSU Bakersfield,9001 Stockdale Hwy,Bakersfield,CA,93311-1099,Kern County,Far West,6616542782,www.csub.edu/,www.csub.edu/Admissions/,https://www2.calstate.edu/apply,www.csub.edu/FinAid/,https://www2.calstate.edu/attend/paying-for-college/Pages/csu-costs.aspx,"Public, 4-year or above",Public,Doctoral degree,"10,000 - 19,999",No,No,City: Large,-119.104711,35.350005,00799300  ,770314545,Vernon Harper,President,False
110501,California State University-Chancellors Office, ,401 Golden Shore,Long Beach,CA,90802-4210,Los Angeles County,Far West,5629514000,www.calstate.edu/, ,https://www.calstate.edu/apply, ,https://www.calstate.edu/attend/paying-for-college/Pages/csu-costs.aspx,Administrative Unit,Public,Doctoral degree,Not applicable,No,No,City: Large,-118.201255,33.764338,00113600  ,954601267,Mildred Garcia,Chancellor,False
441937,California State University-Channel Islands,CSU Channel Islands,1 University Drive,Camarillo,CA,93012,Ventura County,Far West,8054378400,www.csuci.edu/,www.csuci.edu/admissions/index.htm,https://www2.calstate.edu/apply,www.csuci.edu/financialaid/index.htm,https://www2.calstate.edu/attend/paying-for-college/Pages/csu-costs.aspx,"Public, 4-year or above",Public,Doctoral degree,"5,000 - 9,999",No,No,Rural: Fringe,-119.04356,34.162949,03980300  ,912153805,Richard Yao,President,False
110538,California State University-Chico, ,First and Normal Sts,Chico,CA,95929-0150,Butte County,Far West,5308986116,www.csuchico.edu/,www.csuchico.edu/admissions/,https://www2.calstate.edu/apply,www.csuchico.edu/fa/,https://www2.calstate.edu/attend/paying-for-college/Pages/csu-costs.aspx,"Public, 4-year or above",Public,Master degree,"10,000 - 19,999",No,No,City: Midsize,-121.844859,39.729712,00114600  ,951230865,Steve Perez,President,False
110547,California State University-Dominguez Hills,CSUDH,1000 E Victoria St,Carson,CA,90747-0005,Los Angeles County,Far West,3102433696,https://www.csudh.edu/,https://www.csudh.edu/future-students/explore/,https://www.calstate.edu/apply,https://www.csudh.edu/financial-aid/,https://www.calstate.edu/attend/paying-for-college/Pages/csu-costs.aspx,"Public, 4-year or above",Public,Doctoral degree,"10,000 - 19,999",No,No,City: Small,-118.255917,33.864766,00114100  ,931043787,Dr. Thomas A. Parham,President,False
110574,California State University-East Bay,Cal State East Bay,25800 Carlos Bee Blvd,Hayward,CA,94542,Alameda County,Far West,5108853000,https://www.csueastbay.edu/,https://www.csueastbay.edu/futurestudents/,https://www.calstate.edu/apply,https://www.csueastbay.edu/financialaid/index.html,https://www.csueastbay.edu/financialaid/files/images/net-price-calculator/npcalc.htm,"Public, 4-year or above",Public,Doctoral degree,"10,000 - 19,999",No,No,Suburb: Large,-122.054135,37.657694,00113800  ,946390556,Dr. Cathy Sandeen,President,False
110556,California State University-Fresno, ,5241 N Maple Ave,Fresno,CA,93740,Fresno County,Far West,5592784240,www.fresnostate.edu/,https://studentaffairs.fresnostate.edu/are/,https://www2.calstate.edu/apply,https://studentaffairs.fresnostate.edu/financialaid/index.html,https://studentaffairs.fresnostate.edu/financialaid/netprice/index.html,"Public, 4-year or above",Public,Doctoral degree,"20,000 and above",No,No,City: Large,-119.744569,36.811154,00114700  ,946001347,Saúl Jiménez-Sandoval,President,False
110565,California State University-Fullerton,Cal State Fullerton,800 N. State College Blvd.,Fullerton,CA,92832-3599,Orange County,Far West,6572782593,www.fullerton.edu/,admissions.fullerton.edu/,https://www2.calstate.edu/apply,www.fullerton.edu/financialaid/,www.fullerton.edu/financialaid/calculator/,"Public, 4-year or above",Public,Doctoral degree,"20,000 and above",No,No,Suburb: Large,-117.885446,33.881506,00113700  ,330632102,Ronald S. Rochon,President,False
110583,California State University-Long Beach,Cal State Long Beach,1250 Bellflower Blvd,Long Beach,CA,90840-0115,Los Angeles County,Far West,5629854111,www.csulb.edu/,www.csulb.edu/admissions,https://www2.calstate.edu/apply,www.csulb.edu/financial-aid,https://www2.calstate.edu/attend/paying-for-college/Pages/csu-costs.aspx,"Public, 4-year or above",Public,Doctoral degree,"20,000 and above",No,No,City: Large,-118.11204,33.782818,00113900  ,931150363,Jane Close Conoley,President,False
110592,California State University-Los Angeles,Cal State LA,5151 State University Dr,Los Angeles,CA,90032-8506,Los Angeles County,Far West,3233433000,https://www.calstatela.edu/,https://www.calstatela.edu/admissions,https://www.calstate.edu/apply,https://www.calstatela.edu/financialaid,https://www.calstate.edu/attend/paying-for-college/Pages/csu-costs.aspx,"Public, 4-year or above",Public,Doctoral degree,"20,000 and above",No,No,City: Large,-118.168965,34.066927,00114000  ,946001347,Berenecea Eanes,President,False
409698,California State University-Monterey Bay,CSUMB,100 Campus Center,Seaside,CA,93955-8001,Monterey County,Far West,8315823000,https://csumb.edu/,https://csumb.edu/admissions,https://www.calstate.edu/apply,https://csumb.edu/financialaid,https://csumb.github.io/net-price-calculator.html,"Public, 4-year or above",Public,Master degree,"5,000 - 9,999",No,No,Suburb: Midsize,-121.796178,36.652397,03260300  ,946001347,Vanya Quiñones,President,False
110608,California State University-Northridge,CSUN,18111 Nordhoff St,Northridge,CA,91330,Los Angeles County,Far West,8186771200,https://www.csun.edu/,https://www.csun.edu/admissions-financial-aid,https://www.calstate.edu/apply,https://www.csun.edu/admissions-financial-aid,https://www.csun.edu/financialaid/net-price-calculator,"Public, 4-year or above",Public,Doctoral degree,"20,000 and above",No,No,City: Large,-118.529319,34.240126,00115300  ,946001347,Erika D. Beck,President,False
110617,California State University-Sacramento,Sacramento State,6000 J St,Sacramento,CA,95819-2694,Sacramento County,Far West,9162786011,https://www.csus.edu/,https://www.csus.edu/apply/admissions/,https://www2.calstate.edu/apply,https://www.csus.edu/apply/financial-aid-scholarships/,https://www2.calstate.edu/attend/paying-for-college/Pages/csu-costs.aspx,"Public, 4-year or above",Public,Doctoral degree,"20,000 and above",No,No,City: Large,-121.423549,38.559415,00115000  ,680365325,Dr. J. Luke Wood,President,False
110510,California State University-San Bernardino,Cal State San Bernardino,5500 University Parkway,San Bernardino,CA,92407-2393,San Bernardino County,Far West,9095375000,www.csusb.edu/,www.csusb.edu/admissions,https://www2.calstate.edu/apply,www.csusb.edu/financial-aid,https://www2.calstate.edu/attend/paying-for-college/Pages/csu-costs.aspx,"Public, 4-year or above",Public,Doctoral degree,"10,000 - 19,999",No,No,City: Midsize,-117.323801,34.182622,00114200  ,330644150,Tomas Morales,President,False
366711,California State University-San Marcos, ,333 S Twin Oaks Valley Rd,San Marcos,CA,92096-0001,San Diego County,Far West,7607504000,www.csusm.edu/,www.csusm.edu/admissions/,https://www.calstate.edu/apply,www.csusm.edu/finaid/,https://www.calstate.edu/attend/paying-for-college/Pages/csu-costs.aspx,"Public, 4-year or above",Public,Doctoral degree,"10,000 - 19,999",No,No,Suburb: Large,-117.159013,33.130569,03011300  ,800390564,Ellen Neufeldt,President,False
110495,California State University-Stanislaus,Stanislaus State,One University Circle,Turlock,CA,95382-0299,Stanislaus County,Far West,2096673122,https://www.csustan.edu/,https://www.csustan.edu/undergrad,https://www.calstate.edu/apply,https://www.csustan.edu/financial-aid-scholarship,https://finaid.csustan.edu/netpricecalculator/,"Public, 4-year or above",Public,Doctoral degree,"5,000 - 9,999",No,No,Suburb: Small,-120.852511,37.52577,00115700  ,770207337,Britt Rios-Ellis,President,False
496043,California University of Science and Medicine, ,1501 Violet Street,Colton,CA,92324-1603,San Bernardino County,Far West,9095809661,https://www.cusm.edu/,https://www.cusm.edu/academics/md/requirements-for-admission/index.php,https://www.cusm.edu/academics/md/application-process/index.php,https://www.cusm.edu/student/student-business-services/office-of-financial-aid.php,https://cusm.edu/,"Private not-for-profit, 4-year or above",Private nonprofit,Doctoral degree,"Under 1,000",No,No,Suburb: Large,-117.350487,34.077252,04290800  ,464141445,Paul Lyons,President,False
111391,California Western School of Law, ,225 Cedar St,San Diego,CA,92101-3046,San Diego County,Far West,6192390391,https://www.cwsl.edu/,https://www.cwsl.edu/admissions_and_aid/index.html,www.cwsl.edu/admissions_and_aid/how_to_apply/index.html,https://www.cwsl.edu/admissions_and_aid/financial_aid/index.html, ,"Private not-for-profit, 4-year or above",Private nonprofit,Doctoral degree,"Under 1,000",No,No,City: Large,-117.162416,32.722192,01310300  ,952944594,Sean Scott,President & Dean,False
433013,Career Networks Institute,CNI College,1610 E. Saint Andrew Place Suite 200,Santa Ana,CA,92705,Orange County,Far West,7144379697,www.cnicollege.edu/, ,cnicollege.edu/online-application, ,cnicollege.edu/page/student-services/net-price-calculator,"Private for-profit, 4-year or above",Private for-profit,Bachelor degree,"1,000 - 4,999",No,No,City: Large,-117.8478,33.721058,03242300  ,330607608,James Buffington,President,False
485467,Carrington College-Administrative Office,Carrington College-Administrative Office,8909 Folsom Blvd.,Sacramento,CA,95826,Sacramento County,Far West,9163616666,https://carrington.edu/, , ,https://carrington.edu/financial-aid/,https://carrington.edu/financial-aid/how-much-will-it-cost/,Administrative Unit,Private for-profit,Bachelor degree,Not applicable,No,No,Suburb: Large,-121.371383,38.556104,00974800  ,943166490,Mitch Charles,President,False
125532,Carrington College-Sacramento,Carrington College formerly Western Career College-Sacramento,8909 Folsom Blvd.,Sacramento,CA,95826,Sacramento County,Far West,9163611660,https://carrington.edu/,https://carrington.edu/admissions/, ,https://carrington.edu/financial-aid/,https://carrington.edu/financial-aid/how-much-will-it-cost/,"Private for-profit, 4-year or above",Private for-profit,Bachelor degree,"1,000 - 4,999",No,No,Suburb: Large,-121.371383,38.556104,00974800  ,943166490,Mitch Charles,President,False
111638,Casa Loma College-Los Angeles, ,15301 Ventura Blvd. Suite D-100,Sherman Oaks,CA,91403,Los Angeles County,Far West,8002705052,https://www.casalomacollege.edu/,https://casalomacollege.edu/admissions/,https://casalomacollege.edu/enroll-dms/,https://casalomacollege.edu/financial-aid/about-financial-aid/,https://casalomacollege.edu/net-price-calculator/,"Private not-for-profit, 4-year or above",Private nonprofit,Bachelor degree,"Under 1,000",No,No,City: Large,-118.466548,34.155096,00673100  ,952462737,Scott Sand,President,False
489353,Chamberlain University-California,Chamberlain College of Nursing-Sacramento Chamberlain College of Nursing-Irwindale,10971 Sun Center,Rancho Cordova,CA,95670,Sacramento County,Far West,9163303410,https://www.chamberlain.edu/, ,https://community.chamberlain.edu/s/application,https://www.chamberlain.edu/admissions/financial-aid-scholarships,https://www.chamberlain.edu/admissions/financial-aid-scholarships/calculator,"Private for-profit, 4-year or above",Private for-profit,Bachelor degree,"Under 1,000",No,No,City: Small,-121.278258,38.596193,00638520  ,202452410,Karen Cox,President,False
111948,Chapman University, ,One University Dr.,Orange,CA,92866,Orange County,Far West,7149976815,https://www.chapman.edu/,https://www.chapman.edu/admission/index.aspx,https://www.commonapp.org/explore/chapman-university,https://www.chapman.edu/students/tuition-and-aid/financial-aid/index.aspx,https://www.chapman.edu/students/tuition-and-aid/financial-aid/net-cost-calculator/index.aspx,"Private not-for-profit, 4-year or above",Private nonprofit,Doctoral degree,"5,000 - 9,999",No,No,City: Midsize,-117.852518,33.79302,00116400  ,951643992,Dr. Daniele C. Struppa,President,True
111966,Charles R Drew University of Medicine and Science,CDU,1731 E 120th St,Los Angeles,CA,90059,Los Angeles County,Far West,3235634800,www.cdrewu.edu/,www.cdrewu.edu/admissions,www.cdrewu.edu/Apply,www.cdrewu.edu/admissions/financial-aid,https://docs-cdrewu.cloud/assets/admissions/PriceCalculator.html,"Private not-for-profit, 4-year or above",Private nonprofit,Doctoral degree,"Under 1,000",No,No,Suburb: Large,-118.242791,33.925658,01036500  ,956151774,"David Carlisle, MD",President/CEO,False
112127,Church Divinity School of the Pacific,CDSP,2451 Ridge Road,Berkeley,CA,94709-1211,Alameda County,Far West,5102040700,www.cdsp.edu/,cdsp.edu/admissions,cdsp.edu/admissions/apply/,cdsp.edu/admissions/financial-aid,cdsp.edu/tuition-and-fees/,"Private not-for-profit, 4-year or above",Private nonprofit,Master degree,"Under 1,000",No,No,City: Midsize,-122.261122,37.876184,00116500  ,941156508,"Stephen Fowl, Ph.D.",President & Dean,False
112251,Claremont Graduate University, ,150 E Tenth St,Claremont,CA,91711-6160,Los Angeles County,Far West,9096218000,www.cgu.edu/,www.cgu.edu/admissions/,admissions.cgu.edu/apply/,mycampus.cgu.edu/web/financial-aid/,www.cgu.edu/admissions/cost-aid/financial-calculator/,"Private not-for-profit, 4-year or above",Private nonprofit,Doctoral degree,"1,000 - 4,999",No,No,Suburb: Large,-117.713703,34.103585,00116900  ,951664100,Tim Kirley,President,False
488387,Claremont Lincoln University, ,150 West First Street,Claremont,CA,91711-4744,Los Angeles County,Far West,9096674400,https://claremontlincoln.edu/,https://claremontlincoln.edu/admission/,https://apply.claremontlincoln.edu/,https://claremontlincoln.edu/admission/,claremontlincoln.edu/students/net-price-calculator/,"Private not-for-profit, 4-year or above",Private nonprofit,Master degree,"Under 1,000",No,No,Suburb: Large,-117.716117,34.094273,04253600  ,451171945,Dr. Lynn Priddy,President,False
112260,Claremont McKenna College, ,500 E 9th St,Claremont,CA,91711-6400,Los Angeles County,Far West,9096218000,www.cmc.edu/,www.cmc.edu/admission,www.cmc.edu/admission/apply,www.cmc.edu/financial-aid,https://npc.collegeboard.org/student/app/claremontmckenna,"Private not-for-profit, 4-year or above",Private nonprofit,Master degree,"1,000 - 4,999",No,No,Suburb: Large,-117.711188,34.102154,00117000  ,951664101,Hiram E. Chodosh,President,True
124283,Claremont School of Theology, ,10497 Wilshire Blvd,Los Angeles,CA,90024,Los Angeles County,Far West,9094472500,www.cst.edu/,www.cst.edu/admissions/,www.cst.edu/admissions/,www.cst.edu/admissions/financial-aid-scholarships/, ,"Private not-for-profit, 4-year or above",Private nonprofit,Doctoral degree,"Under 1,000",No,No,City: Large,-118.432495,34.064918,00128800  ,951904355,Grant Hagiya,President,False
112075,Concordia University-Irvine,Concordia University Irvine,1530 Concordia West,Irvine,CA,92612-3203,Orange County,Far West,9498548002,www.cui.edu/,www.cui.edu/admissions/,www.cui.edu/en-us/apply,www.cui.edu/studentlife/financial-aid/,www.cui.edu/studentlife/financial-aid/undergraduate/prospective-students-net-price-calculator,"Private not-for-profit, 4-year or above",Private nonprofit,Doctoral degree,"1,000 - 4,999",No,No,City: Large,-117.812305,33.653665,02070500  ,952798775,Michael A. Thomas,President,False
113111,Crafton Hills College,CHC--Crafton Hills College,11711 Sand Canyon Road,Yucaipa,CA,92339-1799,San Bernardino County,Far West,9097942161,www.craftonhills.edu/,www.craftonhills.edu/admissions-and-records/index.php,https://www.opencccapply.net/gateway/apply?cccMisCode=981,www.craftonhills.edu/current-students/financial-aid/index.php,https://misweb.cccco.edu/npc/981/npcalc.htm,"Public, 4-year or above",Public,Bachelor degree,"5,000 - 9,999",No,No,Suburb: Large,-117.101173,34.039178,00927200  ,956002754,Kevin Horan,President,False
113236,Cypress College, ,9200 Valley View,Cypress,CA,90630-5897,Orange County,Far West,7144847000,www.cypresscollege.edu/,www.cypresscollege.edu/admissions,www.cypresscollege.edu/admissions/apply-now/,www.cypresscollege.edu/financial-aid/,misweb.cccco.edu/npc/861/npcalc.htm,"Public, 4-year or above",Public,Bachelor degree,"10,000 - 19,999",No,No,City: Small,-118.025143,33.82833,00119300  ,952394131,Scott Thayer,President,False
113616,DHARMA REALM BUDDHIST UNIVERSITY, ,1991 Virtue Way,Ukiah,CA,95482-6050,Mendocino County,Far West,7076217000,https://www.drbu.edu/,https://www.drbu.edu/admissions/,https://www.drbu.edu/admissions/apply/,https://www.drbu.edu/admissions/financial-aid/,https://www.drbu.edu/admissions/financial-aid/,"Private not-for-profit, 4-year or above",Private nonprofit,Post-masters certificate,"Under 1,000",No,No,Town: Remote,-123.158174,39.134532,04284800  ,237133893,Susan Rounds,President,False
496469,Daybreak University, ,321 South State College Blvd,Anaheim,CA,92806,Orange County,Far West,3107390132,https://daybreak.edu/,https://daybreak.edu/admissions/apply.html?pm=1,https://daybreak.edu/admissions/apply.html?pm=1,https://daybreak.edu/admissions/tuition,https://daybreak.edu/admissions/tuition,"Private not-for-profit, 4-year or above",Private nonprofit,Doctoral degree,"Under 1,000",No,No,City: Large,-117.88954,33.837857,-2        ,455063134,Jay Oh,President,False
482431,DeVry University-California,DeVry University-NewarkDeVry University-OntarioDeVry University-San DiegoDeVry University-San JoseDeVry University-Sherman Oaks,"2970 Inland Empire Blvd, Ste 100",Ontario,CA,91764,San Bernardino County,Far West,9096228866,https://www.devry.edu/,https://www.devry.edu/admissions.html,https://dv.secure.force.com/sswa/dvu/us/2?vc=170005&intcmp=Header|ApplyNow,https://www.devry.edu/tuition-financial-aid/financial-aid.html,https://my.devry.edu/npc,"Private for-profit, 4-year or above",Private for-profit,Master degree,"1,000 - 4,999",No,No,City: Midsize,-117.5876,34.068481,01072706  ,362781982,Debra Maldonado,"Assistant Director, Student Central",False
